~Version Information
 VERS.                2.00:   CWLS log ASCII Standard -VERSION 2.00
 WRAP.                  NO:   One line per frame
~Well Information Block
#MNEM.UNIT                 Well Data                         Data Description
#---------  -----------------------------------------  -------------------------------
 STRT.FT                                      0.0000:  Starting Depth
 STOP.FT                                   9827.0000:  Ending Depth
 STEP.FT                                      0.5000:  Level Spacing
 NULL.                                     -999.2500:  Absent Value
 COMP.      ANADARKO PETROLEUM CORPORATION          :  Company
 WELL.      ECHO SPRINGS STATE 5-16                 :  Well
 FLD .      ECHO SPRINGS                            :  Field
 LOC .      2640' FNL & 2640' FEL                   :  Location
 CNTY.      CARBON                                  :  County
 STAT.      WYOMING                                 :  State
 SRVC.      Baker Atlas                             :  Service Company
 DATE.      25-Jul-2003                             :  Log Date
 API .      49-007-22364                            :  API Number
 UWI .      490072236400                            :  Unique Well ID
~Curve Information Block
#MNEM.UNIT           API Codes    Curve Description
#---------        -------------   -------------------------------
 DEPT    .FT      99 995 99  1:   Depth
 CAL     .IN      70 280 99  1:   Caliper
 GR      .GAPI    30 310  1  1:   Gamma Ray counts
 M2R1    .OHMM    99 995 99  1:   Vert resolution matched (2 ft) res - DOI 10 inch
 M2R2    .OHMM    99 995 99  1:   Vert resolution matched (2 ft) res - DOI 20 inch
 M2R3    .OHMM    99 995 99  1:   Vert resolution matched (2 ft) res - DOI 30 inch
 M2R6    .OHMM    99 995 99  1:   Vert resolution matched (2 ft) res - DOI 60 inch
 M2R9    .OHMM    99 995 99  1:   Vert resolution matched (2 ft) res - DOI 90 inch
 M2RX    .OHMM    99 995 99  1:   Vert resolution matched (2 ft) res - DOI 120 inch
 PE      .B/E     45 358  1  1:   Photo Electric Cross Section
 PORZ    .PU      45 890 99  1:   Porosity from ZDEN or ZDNC
 SP      .MV       1  10  1  1:   Spontaneous Potential
 TEN     .LBF     99 635 99  1:   Differential Tension
 ZDEN    .G/C3    45 350  1  1:   ZDL Bulk Density
 ZCOR    .G/C3    45 356 99  1:   ZDL Correction
~Parameter Information Block
#MNEM.UNIT             Parameter Value                     Parameter Description
#---------  -----------------------------------------  -------------------------------
 HIDE.      HIGH DEFINITION INDUCTION LOG           :  Header Identifer
 HID1.      Gamma Ray / Caliper                     :  Header Identifer
 CLAB.      COUNTY                                  :  County Label (Comments)
 SLAB.      STATE                                   :  State Label (Comments)
 FILE.      12521                                   :  File Number
 SECT.      16                                      :  Section
 TOWN.      19 N                                    :  Township
 RANG.      93 W                                    :  Range
 OS1 .      ZDL/CN                                  :  Other Services Line 1
 PDAT.      G.L.                                    :  Permanent Datum
 EPD .FT    6760                                    :  Elevation Of Perm. Datum
 LMF .      K.B.                                    :  Log Measured From
 APD .FT    18                                      :  Above Permanent Datum
 DMF .      K.B.                                    :  Drilling Measured From
 EKB .FT    6778                                    :  Elevation Of Kelly Bushing
 EDF .FT    6777                                    :  Elevation Of Derrick Floor
 EGL .FT    6760                                    :  Elevation Of Ground Level
 RUN .      1                                       :  Run Number
 TRIP.      1                                       :  Trip Number
 SON .      421546                                  :  Service Order Number
 TDD .FT    9820                                    :  Total Depth - Driller
 TDL .FT    9815                                    :  Total Depth - Logger
 BLI .FT    9815                                    :  Bottom Log Interval
 TLI .FT    0                                       :  Top Log Interval
 CSIZ.IN    9.625                                   :  Casing Size
 CBDR.FT    1501                                    :  N/A
 CBLO.FT    1515                                    :  N/A
 BS  .IN    7.875                                   :  Bit Size
 DFT .      GEL/CHEM                                :  Drilling Fluid Type
 DFD .LB/G  10.4                                    :  Drilling Fluid Density
 DFV .S     41                                      :  Drilling Fluid Viscosity
 DFPH.      9.0                                     :  Drilling Fluid Ph
 DFL .C3    10.0                                    :  Drilling Fluid Loss
 MSS .      TANK                                    :  Mud Sample Source
 RMS .OHMM  1.52                                    :  Resistivity Of Mud Sample
 MST .DEGF  87                                      :  Mud Sample Temperature
 RMFS.OHMM  1.14                                    :  Resistivity Of Mud Filtrate Sample
 MFST.DEGF  83                                      :  Mud Filtrate Sample Temperature
 RMCS.OHMM  1.82                                    :  Resistivity Of Mud Cake Sample
 MCST.DEGF  87                                      :  Mud Cake Sample Temperature
 MFSS.      MEAS.                                   :  Mud Filtrate Sample Source
 MCSS.      CALC.                                   :  Mud Cake Sample Source
 RMB .OHMM  .65                                     :  Mud Resistivity At Bht
 BHT .DEGF  203                                     :  Bottom Hole Temperature
 TSC .      7 HOURS                                 :  Time Since Circulation
 MRT .DEGF  203                                     :  Maximum Recorded Temperature
 LUN .      HL-6559                                 :  Logging Unit Number
 LUL .      RK. SPRINGS                             :  Logging Unit Location
 ENGI.      WARRINGTON                              :  Engineer's Name
 WITN.      ODUM / BERGMAN                          :  Witness' Name
 TSTR.      HDIL/                                   :  N/A
 TSTG.      NA                                      :  N/A
 STUS.      FINAL                                   :  N/A
 LCNM.      BAKER ATLAS                             :  N/A
 LCC .      150                                     :  Logging Company Code
 NATI.      CARBON                                  :  Nation
 OPMD.      OH.WIRE                                 :  N/A
 PANA.      WARRINGTON                              :  N/A
 PCON.      BAKER ATLAS                             :  N/A
~Other information
 CEMENT VOLUME BASED ON 4.5" CASING                                              
 CALIPER VERIFIED IN CASING                                                      
 THANKS FOR USING BAKER ATLAS                                                    
 CREW:  BRAMWELL / MYERS                                                         
 RIG:  CYCLONE #14                                                               
#  Curve Data
~A DEPT      CAL       GR        M2R1      M2R2      M2R3      M2R6      M2R9      M2RX      PE        PORZ      SP        TEN       ZDEN      ZCOR     
# ...
 7560.000     8.245   106.909    13.749    15.044    15.666    16.032    16.167    16.502     2.400    -1.572   -42.344    -5.979     2.676     0.055
 7560.500     8.243   105.264    13.619    14.833    15.430    15.789    15.926    16.253     2.585    -1.180   -42.249    -7.946     2.669     0.048
 7561.000     8.243   106.097    13.652    14.793    15.377    15.733    15.874    16.197     2.896    -0.492   -42.192   -18.288     2.658     0.037
 7561.500     8.245   109.582    13.710    14.790    15.368    15.722    15.868    16.190     3.085     0.155   -42.074   -28.169     2.647     0.031
 7562.000     8.248   111.266    13.587    14.631    15.204    15.555    15.705    16.023     3.105     0.786   -41.894   -34.356     2.637     0.030
 7562.500     8.249   108.278    13.352    14.412    14.986    15.333    15.485    15.801     3.213     1.316   -41.776   -40.035     2.628     0.028
 7563.000     8.246   103.994    13.249    14.386    14.972    15.319    15.472    15.793     3.321     1.126   -41.698   -46.358     2.631     0.030
 7563.500     8.244   104.254    13.309    14.541    15.140    15.488    15.645    15.975     3.291     0.442   -41.573   -52.015     2.643     0.036
 7564.000     8.245   108.445    13.377    14.652    15.244    15.591    15.747    16.086     3.224     0.027   -41.505   -55.265     2.650     0.041
 7564.500     8.245   110.954    13.405    14.635    15.193    15.532    15.683    16.028     3.246    -0.014   -41.618   -54.306     2.650     0.044
 7565.000     8.247   109.504    13.460    14.582    15.087    15.413    15.558    15.906     3.275    -0.168   -41.762   -50.548     2.653     0.049
 7565.500     8.252   106.732    13.487    14.480    14.926    15.235    15.372    15.722     3.313    -0.022   -41.748   -49.208     2.650     0.054
 7566.000     8.251   104.580    13.367    14.259    14.650    14.938    15.066    15.413     3.324     0.576   -41.624   -51.180     2.640     0.054
 7566.500     8.243   103.970    13.183    14.039    14.390    14.657    14.777    15.119     3.256     1.058   -41.596   -52.260     2.633     0.048
 7567.000     8.242   105.836    13.069    13.957    14.286    14.537    14.652    14.991     3.214     1.233   -41.718   -54.944     2.630     0.039
 7567.500     8.250   108.781    13.010    13.962    14.284    14.523    14.636    14.972     3.242     1.146   -41.811   -59.405     2.631     0.036
 7568.000     8.255   111.399    13.000    14.005    14.329    14.561    14.676    15.008     3.324     0.990   -41.757   -61.172     2.634     0.041
 7568.500     8.250   113.052    13.071    14.098    14.430    14.664    14.783    15.110     3.504     1.250   -41.659   -59.354     2.629     0.041
 7569.000     8.244   113.937    13.198    14.214    14.560    14.801    14.927    15.247     3.744     1.880   -41.659   -55.836     2.619     0.031
 7569.500     8.244   113.714    13.301    14.284    14.647    14.902    15.037    15.347     3.913     2.027   -41.722   -47.342     2.617     0.028
 7570.000     8.247   113.041    13.275    14.218    14.599    14.868    15.012    15.306     4.016     1.304   -41.784   -35.039     2.628     0.037
 7570.500     8.249   111.806    13.060    13.955    14.353    14.635    14.785    15.059     4.102     0.032   -41.843   -23.883     2.649     0.055
 7571.000     8.249   109.979    12.721    13.559    13.971    14.262    14.417    14.666     4.024    -0.794   -41.861   -16.599     2.663     0.074
 7571.500     8.245   109.768    12.367    13.146    13.569    13.866    14.023    14.248     3.731    -0.427   -41.746   -15.621     2.657     0.083
 7572.000     8.241   112.010    12.115    12.846    13.278    13.578    13.737    13.941     3.323     0.440   -41.552   -18.568     2.643     0.076
 7572.500     8.242   113.713    12.066    12.777    13.217    13.521    13.681    13.869     2.958     0.946   -41.405   -20.883     2.634     0.056
 7573.000     8.245   113.015    12.233    12.957    13.401    13.711    13.873    14.051     2.854     1.168   -41.299   -22.808     2.631     0.038
 7573.500     8.247   111.788    12.561    13.313    13.758    14.074    14.238    14.409     2.866     1.260   -41.174   -27.632     2.629     0.029
 7574.000     8.248   110.624    12.926    13.698    14.143    14.465    14.627    14.795     2.763     1.190   -41.210   -36.092     2.630     0.027
 7574.500     8.246   108.729    13.229    14.011    14.458    14.786    14.942    15.109     2.697     1.175   -41.640   -44.582     2.631     0.026
 7575.000     8.242   105.480    13.471    14.267    14.729    15.062    15.210    15.378     2.747     0.777   -42.013   -49.554     2.637     0.028
 7575.500     8.237   102.703    13.582    14.393    14.874    15.211    15.349    15.520     2.720    -0.310   -41.925   -52.243     2.655     0.038
 7576.000     8.239   102.825    13.491    14.301    14.796    15.131    15.257    15.430     2.720    -1.262   -41.703   -54.794     2.671     0.047
 7576.500     8.247   104.563    13.338    14.127    14.620    14.952    15.066    15.243     2.916    -1.412   -41.703   -55.025     2.673     0.051
 7577.000     8.255   106.008    13.276    14.029    14.506    14.833    14.936    15.119     3.025    -1.170   -41.739   -51.421     2.669     0.052
 7577.500     8.260   107.783    13.328    14.027    14.473    14.794    14.891    15.082     2.928    -0.730   -41.749   -43.402     2.662     0.049
 7578.000     8.258   109.715    13.458    14.084    14.493    14.808    14.901    15.102     2.875    -0.028   -41.799   -29.599     2.650     0.042
 7578.500     8.248   109.850    13.562    14.117    14.490    14.800    14.893    15.103     2.847     0.435   -41.839   -15.268     2.643     0.035
 7579.000     8.240   108.626    13.560    14.070    14.421    14.728    14.823    15.042     2.699     0.720   -41.828   -10.989     2.638     0.029
 7579.500     8.242   106.728    13.518    14.027    14.375    14.684    14.786    15.013     2.598     1.240   -41.838   -17.668     2.630     0.023
 7580.000     8.248   105.210    13.548    14.092    14.458    14.781    14.892    15.129     2.736     1.607   -41.993   -26.003     2.623     0.024
 7580.500     8.247   104.656    13.676    14.281    14.679    15.026    15.149    15.398     2.846     1.215   -42.269   -31.234     2.630     0.033
 7581.000     8.244   104.998    13.872    14.554    14.988    15.368    15.503    15.765     2.673     0.073   -42.523   -33.466     2.649     0.042
 7581.500     8.246   106.279    14.095    14.854    15.322    15.739    15.884    16.157     2.479    -0.750   -42.614   -33.857     2.662     0.047
 7582.000     8.251   108.364    14.266    15.079    15.570    16.022    16.173    16.453     2.510    -0.580   -42.565   -34.955     2.660     0.046
 7582.500     8.250   110.603    14.267    15.091    15.590    16.066    16.214    16.496     2.730     0.107   -42.512   -38.859     2.648     0.043
 7583.000     8.240   112.552    14.075    14.869    15.361    15.846    15.983    16.260     2.897     0.383   -42.468   -42.683     2.644     0.043
 7583.500     8.235   111.393    13.874    14.629    15.110    15.592    15.714    15.984     2.825     0.373   -42.260   -41.608     2.644     0.042
 7584.000     8.244   106.562    13.824    14.567    15.041    15.517    15.623    15.889     2.687     0.183   -41.813   -37.474     2.647     0.042
 7584.500     8.257   103.199    13.875    14.633    15.106    15.572    15.664    15.928     2.743    -0.022   -41.310   -36.739     2.650     0.042
 7585.000     8.260   103.566    13.918    14.698    15.175    15.627    15.708    15.971     2.896     0.389   -40.969   -39.727     2.644     0.035
 7585.500     8.252   104.501    13.961    14.764    15.248    15.687    15.760    16.024     3.038     1.387   -40.835   -40.513     2.627     0.023
 7586.000     8.243   103.815    14.094    14.934    15.434    15.865    15.938    16.205     3.238     1.828   -40.840   -37.741     2.620     0.022
 7586.500     8.239   102.592    14.277    15.178    15.700    16.127    16.205    16.479     3.311     1.111   -41.010   -32.802     2.632     0.038
