~Version Information
 VERS.                2.00:   CWLS log ASCII Standard -VERSION 2.00
 WRAP.                  NO:   One line per frame
~Well Information Block
#MNEM.UNIT                 Well Data                         Data Description
#---------  -----------------------------------------  -------------------------------
 STRT.FT                                      0.0000:  Starting Depth
 STOP.FT                                   9827.0000:  Ending Depth
 STEP.FT                                      0.5000:  Level Spacing
 NULL.                                     -999.2500:  Absent Value
 COMP.      ANADARKO PETROLEUM CORPORATION          :  Company
 WELL.      ECHO SPRINGS STATE 5-16                 :  Well
 FLD .      ECHO SPRINGS                            :  Field
 LOC .      2640' FNL & 2640' FEL                   :  Location
 CNTY.      CARBON                                  :  County
 STAT.      WYOMING                                 :  State
 SRVC.      Baker Atlas                             :  Service Company
 DATE.      25-Jul-2003                             :  Log Date
 API .      49-007-22364                            :  API Number
 UWI .      490072236400                            :  Unique Well ID
~Curve Information Block
#MNEM.UNIT           API Codes    Curve Description
#---------        -------------   -------------------------------
 DEPT    .FT      99 995 99  1:   Depth
 CAL     .IN      70 280 99  1:   Caliper
 GR      .GAPI    30 310  1  1:   Gamma Ray counts
 M2R1    .OHMM    99 995 99  1:   Vert resolution matched (2 ft) res - DOI 10 inch
 M2R2    .OHMM    99 995 99  1:   Vert resolution matched (2 ft) res - DOI 20 inch
 M2R3    .OHMM    99 995 99  1:   Vert resolution matched (2 ft) res - DOI 30 inch
 M2R6    .OHMM    99 995 99  1:   Vert resolution matched (2 ft) res - DOI 60 inch
 M2R9    .OHMM    99 995 99  1:   Vert resolution matched (2 ft) res - DOI 90 inch
 M2RX    .OHMM    99 995 99  1:   Vert resolution matched (2 ft) res - DOI 120 inch
 PE      .B/E     45 358  1  1:   Photo Electric Cross Section
 PORZ    .PU      45 890 99  1:   Porosity from ZDEN or ZDNC
 SP      .MV       1  10  1  1:   Spontaneous Potential
 TEN     .LBF     99 635 99  1:   Differential Tension
 ZDEN    .G/C3    45 350  1  1:   ZDL Bulk Density
 ZCOR    .G/C3    45 356 99  1:   ZDL Correction
~Parameter Information Block
#MNEM.UNIT             Parameter Value                     Parameter Description
#---------  -----------------------------------------  -------------------------------
 HIDE.      HIGH DEFINITION INDUCTION LOG           :  Header Identifer
 HID1.      Gamma Ray / Caliper                     :  Header Identifer
 CLAB.      COUNTY                                  :  County Label (Comments)
 SLAB.      STATE                                   :  State Label (Comments)
 FILE.      12521                                   :  File Number
 SECT.      16                                      :  Section
 TOWN.      19 N                                    :  Township
 RANG.      93 W                                    :  Range
 OS1 .      ZDL/CN                                  :  Other Services Line 1
 PDAT.      G.L.                                    :  Permanent Datum
 EPD .FT    6760                                    :  Elevation Of Perm. Datum
 LMF .      K.B.                                    :  Log Measured From
 APD .FT    18                                      :  Above Permanent Datum
 DMF .      K.B.                                    :  Drilling Measured From
 EKB .FT    6778                                    :  Elevation Of Kelly Bushing
 EDF .FT    6777                                    :  Elevation Of Derrick Floor
 EGL .FT    6760                                    :  Elevation Of Ground Level
 RUN .      1                                       :  Run Number
 TRIP.      1                                       :  Trip Number
 SON .      421546                                  :  Service Order Number
 TDD .FT    9820                                    :  Total Depth - Driller
 TDL .FT    9815                                    :  Total Depth - Logger
 BLI .FT    9815                                    :  Bottom Log Interval
 TLI .FT    0                                       :  Top Log Interval
 CSIZ.IN    9.625                                   :  Casing Size
 CBDR.FT    1501                                    :  N/A
 CBLO.FT    1515                                    :  N/A
 BS  .IN    7.875                                   :  Bit Size
 DFT .      GEL/CHEM                                :  Drilling Fluid Type
 DFD .LB/G  10.4                                    :  Drilling Fluid Density
 DFV .S     41                                      :  Drilling Fluid Viscosity
 DFPH.      9.0                                     :  Drilling Fluid Ph
 DFL .C3    10.0                                    :  Drilling Fluid Loss
 MSS .      TANK                                    :  Mud Sample Source
 RMS .OHMM  1.52                                    :  Resistivity Of Mud Sample
 MST .DEGF  87                                      :  Mud Sample Temperature
 RMFS.OHMM  1.14                                    :  Resistivity Of Mud Filtrate Sample
 MFST.DEGF  83                                      :  Mud Filtrate Sample Temperature
 RMCS.OHMM  1.82                                    :  Resistivity Of Mud Cake Sample
 MCST.DEGF  87                                      :  Mud Cake Sample Temperature
 MFSS.      MEAS.                                   :  Mud Filtrate Sample Source
 MCSS.      CALC.                                   :  Mud Cake Sample Source
 RMB .OHMM  .65                                     :  Mud Resistivity At Bht
 BHT .DEGF  203                                     :  Bottom Hole Temperature
 TSC .      7 HOURS                                 :  Time Since Circulation
 MRT .DEGF  203                                     :  Maximum Recorded Temperature
 LUN .      HL-6559                                 :  Logging Unit Number
 LUL .      RK. SPRINGS                             :  Logging Unit Location
 ENGI.      WARRINGTON                              :  Engineer's Name
 WITN.      ODUM / BERGMAN                          :  Witness' Name
 TSTR.      HDIL/                                   :  N/A
 TSTG.      NA                                      :  N/A
 STUS.      FINAL                                   :  N/A
 LCNM.      BAKER ATLAS                             :  N/A
 LCC .      150                                     :  Logging Company Code
 NATI.      CARBON                                  :  Nation
 OPMD.      OH.WIRE                                 :  N/A
 PANA.      WARRINGTON                              :  N/A
 PCON.      BAKER ATLAS                             :  N/A
~Other information
 CEMENT VOLUME BASED ON 4.5" CASING                                              
 CALIPER VERIFIED IN CASING                                                      
 THANKS FOR USING BAKER ATLAS                                                    
 CREW:  BRAMWELL / MYERS                                                         
 RIG:  CYCLONE #14                                                               
#  Curve Data
~A DEPT      CAL       GR        M2R1      M2R2      M2R3      M2R6      M2R9      M2RX      PE        PORZ      SP        TEN       ZDEN      ZCOR     
# ...
 4266.000    10.941   107.133     6.358     7.733     8.489     8.844     9.289     9.752  -999.250  -999.250   -15.617    -8.555  -999.250  -999.250
 4266.500    11.373   103.303     4.916     5.714     6.146     6.417     6.825     7.137  -999.250  -999.250   -14.837    -9.092  -999.250  -999.250
 4267.000    11.703    97.974     4.407     4.946     5.224     5.473     5.879     6.137  -999.250  -999.250   -14.129     2.658  -999.250  -999.250
 4267.500    11.547    93.595     4.903     5.309     5.509     5.788     6.266     6.543  -999.250  -999.250   -13.858    15.845  -999.250  -999.250
 4268.000    10.747    92.656     6.649     6.889     7.042     7.433     8.082     8.461  -999.250  -999.250   -14.331     3.952  -999.250  -999.250
 4268.500     9.800    94.590     9.237     9.004     9.149     9.758    10.628    11.178  -999.250  -999.250   -15.464   -33.275  -999.250  -999.250
 4269.000     9.269    97.409    10.835     9.895    10.007    10.920    11.874    12.564  -999.250  -999.250   -17.066   -62.587  -999.250  -999.250
 4269.500     9.112    98.623    10.814     9.708     9.849    10.835    11.731    12.502  -999.250  -999.250   -18.988   -50.478  -999.250  -999.250
 4270.000     9.068    96.131    10.626     9.815    10.085    11.226    12.077    12.981  -999.250  -999.250   -21.077    25.052  -999.250  -999.250
 4270.500     9.054    91.981    11.216    11.000    11.592    13.152    14.083    15.282  -999.250  -999.250   -23.026   157.159  -999.250  -999.250
 4271.000     9.045    89.123    12.842    13.806    15.130    17.503    18.604    20.398  -999.250  -999.250   -24.538   279.385  -999.250  -999.250
 4271.500     9.003    85.523    15.437    18.545    21.315    25.030    26.444    29.331  -999.250  -999.250   -25.629   315.797  -999.250  -999.250
 4272.000     8.929    79.780    18.397    24.468    29.475    34.880    36.737    41.270  -999.250  -999.250   -26.516   238.371  -999.250  -999.250
 4272.500     8.870    76.421    20.420    28.783    35.776    42.424    44.740    50.963  -999.250  -999.250   -27.449    82.183  -999.250  -999.250
 4273.000     8.852    76.621    20.461    28.821    35.958    42.717    45.338    52.407  -999.250  -999.250   -28.550   -70.255  -999.250  -999.250
 4273.500     8.852    75.762    19.315    26.197    32.006    38.156    40.978    48.092  -999.250  -999.250   -29.661  -152.307  -999.250  -999.250
 4274.000     8.849    72.230    18.277    23.815    28.284    33.858    36.968    44.049  -999.250  -999.250   -29.967  -152.450  -999.250  -999.250
 4274.500     8.846    69.216    18.158    23.120    26.953    32.430    36.121    43.674  -999.250  -999.250   -28.904   -66.675  -999.250  -999.250
 4275.000     8.847    70.752    20.060    25.545    29.702    35.873    40.800    49.991  -999.250  -999.250   -27.282    89.971  -999.250  -999.250
 4275.500     8.850    78.214    25.800    33.831    39.837    47.894    55.540    68.847  -999.250  -999.250   -26.288   234.096  -999.250  -999.250
 4276.000     8.854    85.252    36.080    50.177    60.264    70.683    83.061   103.793  -999.250  -999.250   -26.079   284.613  -999.250  -999.250
 4276.500     8.855    84.947    43.908    65.162    79.266    90.048   106.600   133.842  -999.250  -999.250   -26.067   235.145  -999.250  -999.250
 4277.000     8.850    78.964    42.326    64.842    78.533    88.363   104.666   131.387  -999.250  -999.250   -25.480   121.935  -999.250  -999.250
 4277.500     8.845    74.071    37.059    55.064    65.040    73.726    86.901   108.587  -999.250  -999.250   -23.822   -13.698  -999.250  -999.250
 4278.000     8.847    71.860    32.512    45.303    51.879    59.229    69.353    86.108  -999.250  -999.250   -21.656  -124.229  -999.250  -999.250
 4278.500     8.852    71.060    28.504    37.362    41.863    48.342    55.945    69.016  -999.250  -999.250   -20.017  -169.742  -999.250  -999.250
 4279.000     8.855    70.311    24.816    31.141    34.572    40.265    46.342    56.847  -999.250  -999.250   -19.228  -143.499  -999.250  -999.250
 4279.500     8.851    68.626    21.704    26.541    29.471    34.543    39.829    48.632  -999.250  -999.250   -19.069   -69.948  -999.250  -999.250
 4280.000     8.850    65.960    19.317    23.348    26.082    30.758    35.698    43.433  -999.250  -999.250   -19.352    10.278  -999.250  -999.250
 4280.500     8.855    63.576    17.811    21.509    24.254    28.915    33.693    40.881  -999.250  -999.250   -20.035    52.664  -999.250  -999.250
 4281.000     8.860    62.463    17.273    21.014    23.970    28.938    33.775    40.893  -999.250  -999.250   -20.744    25.345  -999.250  -999.250
 4281.500     8.863    61.750    17.449    21.505    24.856    30.353    35.445    42.838  -999.250  -999.250   -20.911   -63.040  -999.250  -999.250
 4282.000     8.858    63.374    17.824    22.330    26.191    32.305    37.694    45.481  -999.250  -999.250   -20.635  -148.501  -999.250  -999.250
 4282.500     8.851    68.622    18.168    23.211    27.650    34.396    40.058    48.262  -999.250  -999.250   -20.491  -125.459  -999.250  -999.250
 4283.000     8.849    73.740    18.480    24.148    29.222    36.608    42.531    51.181  -999.250  -999.250   -20.818    40.894  -999.250  -999.250
 4283.500     8.853    74.578    18.512    24.740    30.408    38.336    44.440    53.438  -999.250  -999.250   -21.900   245.971  -999.250  -999.250
 4284.000     8.851    72.425    18.349    24.991    31.166    39.533    45.769    55.034  -999.250  -999.250   -23.085   353.417  -999.250  -999.250
 4284.500     8.845    70.249    18.589    25.698    32.464    41.401    47.944    57.701  -999.250  -999.250   -23.296   325.513  -999.250  -999.250
 4285.000     8.845    69.398    19.474    27.288    34.846    44.623    51.782    62.445  -999.250  -999.250   -22.780   209.607  -999.250  -999.250
 4285.500     8.845    70.976    20.663    29.347    37.829    48.593    56.609    68.475  -999.250  -999.250   -22.501    66.955  -999.250  -999.250
 4286.000     8.844    72.408    21.824    31.432    40.894    52.641    61.650    74.866  -999.250  -999.250   -22.393   -55.303  -999.250  -999.250
 4286.500     8.843    71.964    23.057    33.728    44.343    57.101    67.283    82.077  -999.250  -999.250   -22.118  -135.922  -999.250  -999.250
 4287.000     8.846    70.346    24.180    35.961    47.797    61.451    72.850    89.287  -999.250  -999.250   -21.751  -145.042  -999.250  -999.250
 4287.500     8.846    69.284    24.090    36.261    48.605    62.467    74.447    91.637  -999.250  -999.250   -21.359   -31.518  -999.250  -999.250
 4288.000     8.844    67.830    22.346    33.661    45.220    58.267    69.715    86.120  -999.250  -999.250   -20.939   183.226  -999.250  -999.250
 4288.500     8.845    65.551    20.315    30.219    40.321    52.042    62.416    77.325  -999.250  -999.250   -20.444   366.871  -999.250  -999.250
 4289.000     8.851    64.219    19.112    27.822    36.567    47.095    56.544    70.225  -999.250  -999.250   -19.919   408.039  -999.250  -999.250
 4289.500     8.860    64.651    18.754    26.542    34.168    43.779    52.576    65.440  -999.250  -999.250   -19.488   315.889  -999.250  -999.250
 4290.000     8.865    65.220    18.971    25.965    32.663    41.576    49.914    62.246  -999.250  -999.250   -19.623   163.396  -999.250  -999.250
 4290.500     8.859    65.063    19.430    25.670    31.593    39.957    47.945    59.890  -999.250  -999.250   -20.668    37.005  -999.250  -999.250
 4291.000     8.848    66.142    19.651    25.177    30.439    38.300    45.929    57.460  -999.250  -999.250   -21.535    12.112  -999.250  -999.250
 4291.500     8.839    68.056    19.316    24.247    28.956    36.314    43.524    54.527  -999.250  -999.250   -21.511    75.950  -999.250  -999.250
 4292.000     8.839    68.272    18.634    23.192    27.506    34.433    41.244    51.740  -999.250  -999.250   -21.719   139.104  -999.250  -999.250
 4292.500     8.847    66.213    18.022    22.445    26.547    33.206    39.746    49.925  -999.250  -999.250   -22.197   139.404  -999.250  -999.250
