~Version Information
 VERS.                2.00:   CWLS log ASCII Standard -VERSION 2.00
 WRAP.                  NO:   One line per frame
~Well Information Block
#MNEM.UNIT                 Well Data                         Data Description
#---------  -----------------------------------------  -------------------------------
 STRT.FT                                      0.0000:  Starting Depth
 STOP.FT                                   9827.0000:  Ending Depth
 STEP.FT                                      0.5000:  Level Spacing
 NULL.                                     -999.2500:  Absent Value
 COMP.      ANADARKO PETROLEUM CORPORATION          :  Company
 WELL.      ECHO SPRINGS STATE 5-16                 :  Well
 FLD .      ECHO SPRINGS                            :  Field
 LOC .      2640' FNL & 2640' FEL                   :  Location
 CNTY.      CARBON                                  :  County
 STAT.      WYOMING                                 :  State
 SRVC.      Baker Atlas                             :  Service Company
 DATE.      25-Jul-2003                             :  Log Date
 API .      49-007-22364                            :  API Number
 UWI .      490072236400                            :  Unique Well ID
~Curve Information Block
#MNEM.UNIT           API Codes    Curve Description
#---------        -------------   -------------------------------
 DEPT    .FT      99 995 99  1:   Depth
 CAL     .IN      70 280 99  1:   Caliper
 GR      .GAPI    30 310  1  1:   Gamma Ray counts
 M2R1    .OHMM    99 995 99  1:   Vert resolution matched (2 ft) res - DOI 10 inch
 M2R2    .OHMM    99 995 99  1:   Vert resolution matched (2 ft) res - DOI 20 inch
 M2R3    .OHMM    99 995 99  1:   Vert resolution matched (2 ft) res - DOI 30 inch
 M2R6    .OHMM    99 995 99  1:   Vert resolution matched (2 ft) res - DOI 60 inch
 M2R9    .OHMM    99 995 99  1:   Vert resolution matched (2 ft) res - DOI 90 inch
 M2RX    .OHMM    99 995 99  1:   Vert resolution matched (2 ft) res - DOI 120 inch
 PE      .B/E     45 358  1  1:   Photo Electric Cross Section
 PORZ    .PU      45 890 99  1:   Porosity from ZDEN or ZDNC
 SP      .MV       1  10  1  1:   Spontaneous Potential
 TEN     .LBF     99 635 99  1:   Differential Tension
 ZDEN    .G/C3    45 350  1  1:   ZDL Bulk Density
 ZCOR    .G/C3    45 356 99  1:   ZDL Correction
~Parameter Information Block
#MNEM.UNIT             Parameter Value                     Parameter Description
#---------  -----------------------------------------  -------------------------------
 HIDE.      HIGH DEFINITION INDUCTION LOG           :  Header Identifer
 HID1.      Gamma Ray / Caliper                     :  Header Identifer
 CLAB.      COUNTY                                  :  County Label (Comments)
 SLAB.      STATE                                   :  State Label (Comments)
 FILE.      12521                                   :  File Number
 SECT.      16                                      :  Section
 TOWN.      19 N                                    :  Township
 RANG.      93 W                                    :  Range
 OS1 .      ZDL/CN                                  :  Other Services Line 1
 PDAT.      G.L.                                    :  Permanent Datum
 EPD .FT    6760                                    :  Elevation Of Perm. Datum
 LMF .      K.B.                                    :  Log Measured From
 APD .FT    18                                      :  Above Permanent Datum
 DMF .      K.B.                                    :  Drilling Measured From
 EKB .FT    6778                                    :  Elevation Of Kelly Bushing
 EDF .FT    6777                                    :  Elevation Of Derrick Floor
 EGL .FT    6760                                    :  Elevation Of Ground Level
 RUN .      1                                       :  Run Number
 TRIP.      1                                       :  Trip Number
 SON .      421546                                  :  Service Order Number
 TDD .FT    9820                                    :  Total Depth - Driller
 TDL .FT    9815                                    :  Total Depth - Logger
 BLI .FT    9815                                    :  Bottom Log Interval
 TLI .FT    0                                       :  Top Log Interval
 CSIZ.IN    9.625                                   :  Casing Size
 CBDR.FT    1501                                    :  N/A
 CBLO.FT    1515                                    :  N/A
 BS  .IN    7.875                                   :  Bit Size
 DFT .      GEL/CHEM                                :  Drilling Fluid Type
 DFD .LB/G  10.4                                    :  Drilling Fluid Density
 DFV .S     41                                      :  Drilling Fluid Viscosity
 DFPH.      9.0                                     :  Drilling Fluid Ph
 DFL .C3    10.0                                    :  Drilling Fluid Loss
 MSS .      TANK                                    :  Mud Sample Source
 RMS .OHMM  1.52                                    :  Resistivity Of Mud Sample
 MST .DEGF  87                                      :  Mud Sample Temperature
 RMFS.OHMM  1.14                                    :  Resistivity Of Mud Filtrate Sample
 MFST.DEGF  83                                      :  Mud Filtrate Sample Temperature
 RMCS.OHMM  1.82                                    :  Resistivity Of Mud Cake Sample
 MCST.DEGF  87                                      :  Mud Cake Sample Temperature
 MFSS.      MEAS.                                   :  Mud Filtrate Sample Source
 MCSS.      CALC.                                   :  Mud Cake Sample Source
 RMB .OHMM  .65                                     :  Mud Resistivity At Bht
 BHT .DEGF  203                                     :  Bottom Hole Temperature
 TSC .      7 HOURS                                 :  Time Since Circulation
 MRT .DEGF  203                                     :  Maximum Recorded Temperature
 LUN .      HL-6559                                 :  Logging Unit Number
 LUL .      RK. SPRINGS                             :  Logging Unit Location
 ENGI.      WARRINGTON                              :  Engineer's Name
 WITN.      ODUM / BERGMAN                          :  Witness' Name
 TSTR.      HDIL/                                   :  N/A
 TSTG.      NA                                      :  N/A
 STUS.      FINAL                                   :  N/A
 LCNM.      BAKER ATLAS                             :  N/A
 LCC .      150                                     :  Logging Company Code
 NATI.      CARBON                                  :  Nation
 OPMD.      OH.WIRE                                 :  N/A
 PANA.      WARRINGTON                              :  N/A
 PCON.      BAKER ATLAS                             :  N/A
~Other information
 CEMENT VOLUME BASED ON 4.5" CASING                                              
 CALIPER VERIFIED IN CASING                                                      
 THANKS FOR USING BAKER ATLAS                                                    
 CREW:  BRAMWELL / MYERS                                                         
 RIG:  CYCLONE #14                                                               
#  Curve Data
~A DEPT      CAL       GR        M2R1      M2R2      M2R3      M2R6      M2R9      M2RX      PE        PORZ      SP        TEN       ZDEN      ZCOR     
# ...
 3726.000     8.356    99.226     8.054     9.535    10.168    10.452    10.767    11.192  -999.250  -999.250   -19.284   -63.732  -999.250  -999.250
 3726.500     8.354    94.105    10.651    12.456    13.157    13.536    13.909    14.450  -999.250  -999.250   -19.321   -53.857  -999.250  -999.250
 3727.000     8.347    86.382    15.613    18.089    18.996    19.542    20.059    20.841  -999.250  -999.250   -20.199     7.529  -999.250  -999.250
 3727.500     8.343    79.581    20.833    23.696    24.773    25.475    26.150    27.191  -999.250  -999.250   -21.733    76.078  -999.250  -999.250
 3728.000     8.338    76.512    21.501    23.845    24.879    25.650    26.349    27.432  -999.250  -999.250   -23.391    73.177  -999.250  -999.250
 3728.500     8.330    74.347    18.937    20.459    21.349    22.145    22.784    23.762  -999.250  -999.250   -24.703   -33.588  -999.250  -999.250
 3729.000     8.327    70.939    17.271    18.587    19.509    20.389    21.014    21.968  -999.250  -999.250   -25.580  -182.697  -999.250  -999.250
 3729.500     8.330    66.714    17.387    19.309    20.619    21.742    22.463    23.558  -999.250  -999.250   -26.362  -258.406  -999.250  -999.250
 3730.000     8.327    62.498    18.366    21.663    23.770    25.289    26.196    27.577  -999.250  -999.250   -27.389  -185.469  -999.250  -999.250
 3730.500     8.323    60.629    18.088    22.785    25.756    27.652    28.719    30.360  -999.250  -999.250   -28.263    14.383  -999.250  -999.250
 3731.000     8.329    64.941    16.193    21.376    24.719    26.771    27.872    29.600  -999.250  -999.250   -28.121   233.974  -999.250  -999.250
 3731.500     8.338    74.565    14.415    19.338    22.539    24.553    25.624    27.346  -999.250  -999.250   -26.752   344.237  -999.250  -999.250
 3732.000     8.337    83.020    13.648    18.162    21.051    22.997    24.064    25.822  -999.250  -999.250   -24.872   286.862  -999.250  -999.250
 3732.500     8.329    84.697    13.642    17.716    20.272    22.183    23.295    25.149  -999.250  -999.250   -23.357   104.472  -999.250  -999.250
 3733.000     8.327    82.071    13.846    17.395    19.639    21.557    22.746    24.719  -999.250  -999.250   -22.682  -101.294  -999.250  -999.250
 3733.500     8.328    81.216    13.968    16.983    19.007    21.007    22.308    24.417  -999.250  -999.250   -22.943  -217.832  -999.250  -999.250
 3734.000     8.331    81.245    14.441    17.155    19.157    21.412    22.919    25.277  -999.250  -999.250   -24.173  -173.960  -999.250  -999.250
 3734.500     8.340    76.442    15.717    18.501    20.754    23.544    25.438    28.283  -999.250  -999.250   -25.804    -2.092  -999.250  -999.250
 3735.000     8.346    68.310    17.228    20.332    23.045    26.618    29.053    32.572  -999.250  -999.250   -26.873   172.918  -999.250  -999.250
 3735.500     8.339    62.743    17.742    21.088    24.243    28.574    31.512    35.624  -999.250  -999.250   -27.143   227.561  -999.250  -999.250
 3736.000     8.327    60.317    17.221    20.636    24.120    29.025    32.321    36.839  -999.250  -999.250   -27.021   134.613  -999.250  -999.250
 3736.500     8.322    57.897    16.548    20.040    23.836    29.234    32.843    37.726  -999.250  -999.250   -26.464   -19.018  -999.250  -999.250
 3737.000     8.327    55.424    16.248    19.978    24.165    30.099    34.068    39.420  -999.250  -999.250   -25.265  -121.278  -999.250  -999.250
 3737.500     8.337    55.238    16.500    20.646    25.331    31.908    36.346    42.336  -999.250  -999.250   -23.787   -99.644  -999.250  -999.250
 3738.000     8.337    57.726    17.223    21.886    27.125    34.410    39.401    46.165  -999.250  -999.250   -22.777    58.997  -999.250  -999.250
 3738.500     8.331    60.217    17.972    23.063    28.740    36.610    42.103    49.572  -999.250  -999.250   -22.412   260.620  -999.250  -999.250
 3739.000     8.329    60.209    18.359    23.689    29.572    37.766    43.592    51.525  -999.250  -999.250   -22.147   354.153  -999.250  -999.250
 3739.500     8.335    57.996    18.424    23.902    29.835    38.164    44.198    52.391  -999.250  -999.250   -21.783   283.363  -999.250  -999.250
 3740.000     8.342    55.823    18.279    23.900    29.815    38.178    44.344    52.667  -999.250  -999.250   -21.668   121.355  -999.250  -999.250
 3740.500     8.341    55.651    17.943    23.648    29.486    37.790    44.013    52.333  -999.250  -999.250   -21.813   -27.169  -999.250  -999.250
 3741.000     8.337    57.077    17.563    23.252    28.973    37.157    43.372    51.594  -999.250  -999.250   -21.846   -81.221  -999.250  -999.250
 3741.500     8.340    58.513    17.345    22.974    28.597    36.686    42.901    51.029  -999.250  -999.250   -21.683   -22.139  -999.250  -999.250
 3742.000     8.342    58.805    17.292    22.861    28.415    36.447    42.672    50.736  -999.250  -999.250   -21.534    79.020  -999.250  -999.250
 3742.500     8.334    57.295    17.347    22.871    28.383    36.389    42.633    50.656  -999.250  -999.250   -21.916   120.797  -999.250  -999.250
 3743.000     8.324    55.750    17.567    23.097    28.620    36.660    42.951    50.997  -999.250  -999.250   -22.768    67.483  -999.250  -999.250
 3743.500     8.325    55.813    18.063    23.699    29.328    37.515    43.935    52.128  -999.250  -999.250   -23.122   -31.676  -999.250  -999.250
 3744.000     8.328    56.946    18.828    24.694    30.521    38.960    45.587    54.060  -999.250  -999.250   -22.675   -95.662  -999.250  -999.250
 3744.500     8.330    58.460    19.523    25.641    31.651    40.315    47.121    55.859  -999.250  -999.250   -22.219   -74.560  -999.250  -999.250
 3745.000     8.334    60.367    19.804    26.044    32.110    40.824    47.653    56.481  -999.250  -999.250   -22.159    24.290  -999.250  -999.250
 3745.500     8.336    63.579    19.816    26.036    32.064    40.702    47.451    56.244  -999.250  -999.250   -22.211   141.185  -999.250  -999.250
 3746.000     8.334    67.034    19.799    25.919    31.883    40.406    47.055    55.792  -999.250  -999.250   -22.326   192.811  -999.250  -999.250
 3746.500     8.335    67.871    19.622    25.564    31.407    39.752    46.261    54.880  -999.250  -999.250   -22.452   150.637  -999.250  -999.250
 3747.000     8.335    65.032    19.242    24.976    30.639    38.749    45.085    53.522  -999.250  -999.250   -22.510    84.392  -999.250  -999.250
 3747.500     8.327    61.407    18.992    24.611    30.136    38.090    44.338    52.681  -999.250  -999.250   -22.508    70.310  -999.250  -999.250
 3748.000     8.317    59.339    18.950    24.542    29.987    37.889    44.148    52.508  -999.250  -999.250   -22.447    94.977  -999.250  -999.250
 3748.500     8.316    59.325    18.940    24.510    29.879    37.764    44.075    52.469  -999.250  -999.250   -22.269    95.683  -999.250  -999.250
 3749.000     8.326    60.211    19.034    24.595    29.918    37.838    44.252    52.724  -999.250  -999.250   -22.301    47.988  -999.250  -999.250
 3749.500     8.340    60.202    19.338    24.940    30.284    38.337    44.937    53.570  -999.250  -999.250   -22.767   -17.318  -999.250  -999.250
 3750.000     8.349    58.963    19.872    25.581    31.027    39.305    46.171    55.058  -999.250  -999.250   -22.883   -25.153  -999.250  -999.250
 3750.500     8.351    58.971    20.633    26.528    32.157    40.751    47.955    57.180  -999.250  -999.250   -22.212    57.507  -999.250  -999.250
 3751.000     8.350    60.355    21.291    27.379    33.172    42.042    49.521    59.020  -999.250  -999.250   -21.684   156.860  -999.250  -999.250
 3751.500     8.346    60.866    21.313    27.455    33.236    42.152    49.649    59.115  -999.250  -999.250   -21.896   166.872  -999.250  -999.250
 3752.000     8.341    60.584    20.632    26.644    32.205    40.888    48.102    57.198  -999.250  -999.250   -22.198    83.841  -999.250  -999.250
 3752.500     8.340    60.071    19.776    25.580    30.844    39.195    46.010    54.628  -999.250  -999.250   -22.272    -5.248  -999.250  -999.250
