~Version Information
 VERS.                2.00:   CWLS log ASCII Standard -VERSION 2.00
 WRAP.                  NO:   One line per frame
~Well Information Block
#MNEM.UNIT                 Well Data                         Data Description
#---------  -----------------------------------------  -------------------------------
 STRT.FT                                      0.0000:  Starting Depth
 STOP.FT                                   9827.0000:  Ending Depth
 STEP.FT                                      0.5000:  Level Spacing
 NULL.                                     -999.2500:  Absent Value
 COMP.      ANADARKO PETROLEUM CORPORATION          :  Company
 WELL.      ECHO SPRINGS STATE 5-16                 :  Well
 FLD .      ECHO SPRINGS                            :  Field
 LOC .      2640' FNL & 2640' FEL                   :  Location
 CNTY.      CARBON                                  :  County
 STAT.      WYOMING                                 :  State
 SRVC.      Baker Atlas                             :  Service Company
 DATE.      25-Jul-2003                             :  Log Date
 API .      49-007-22364                            :  API Number
 UWI .      490072236400                            :  Unique Well ID
~Curve Information Block
#MNEM.UNIT           API Codes    Curve Description
#---------        -------------   -------------------------------
 DEPT    .FT      99 995 99  1:   Depth
 CAL     .IN      70 280 99  1:   Caliper
 GR      .GAPI    30 310  1  1:   Gamma Ray counts
 M2R1    .OHMM    99 995 99  1:   Vert resolution matched (2 ft) res - DOI 10 inch
 M2R2    .OHMM    99 995 99  1:   Vert resolution matched (2 ft) res - DOI 20 inch
 M2R3    .OHMM    99 995 99  1:   Vert resolution matched (2 ft) res - DOI 30 inch
 M2R6    .OHMM    99 995 99  1:   Vert resolution matched (2 ft) res - DOI 60 inch
 M2R9    .OHMM    99 995 99  1:   Vert resolution matched (2 ft) res - DOI 90 inch
 M2RX    .OHMM    99 995 99  1:   Vert resolution matched (2 ft) res - DOI 120 inch
 PE      .B/E     45 358  1  1:   Photo Electric Cross Section
 PORZ    .PU      45 890 99  1:   Porosity from ZDEN or ZDNC
 SP      .MV       1  10  1  1:   Spontaneous Potential
 TEN     .LBF     99 635 99  1:   Differential Tension
 ZDEN    .G/C3    45 350  1  1:   ZDL Bulk Density
 ZCOR    .G/C3    45 356 99  1:   ZDL Correction
~Parameter Information Block
#MNEM.UNIT             Parameter Value                     Parameter Description
#---------  -----------------------------------------  -------------------------------
 HIDE.      HIGH DEFINITION INDUCTION LOG           :  Header Identifer
 HID1.      Gamma Ray / Caliper                     :  Header Identifer
 CLAB.      COUNTY                                  :  County Label (Comments)
 SLAB.      STATE                                   :  State Label (Comments)
 FILE.      12521                                   :  File Number
 SECT.      16                                      :  Section
 TOWN.      19 N                                    :  Township
 RANG.      93 W                                    :  Range
 OS1 .      ZDL/CN                                  :  Other Services Line 1
 PDAT.      G.L.                                    :  Permanent Datum
 EPD .FT    6760                                    :  Elevation Of Perm. Datum
 LMF .      K.B.                                    :  Log Measured From
 APD .FT    18                                      :  Above Permanent Datum
 DMF .      K.B.                                    :  Drilling Measured From
 EKB .FT    6778                                    :  Elevation Of Kelly Bushing
 EDF .FT    6777                                    :  Elevation Of Derrick Floor
 EGL .FT    6760                                    :  Elevation Of Ground Level
 RUN .      1                                       :  Run Number
 TRIP.      1                                       :  Trip Number
 SON .      421546                                  :  Service Order Number
 TDD .FT    9820                                    :  Total Depth - Driller
 TDL .FT    9815                                    :  Total Depth - Logger
 BLI .FT    9815                                    :  Bottom Log Interval
 TLI .FT    0                                       :  Top Log Interval
 CSIZ.IN    9.625                                   :  Casing Size
 CBDR.FT    1501                                    :  N/A
 CBLO.FT    1515                                    :  N/A
 BS  .IN    7.875                                   :  Bit Size
 DFT .      GEL/CHEM                                :  Drilling Fluid Type
 DFD .LB/G  10.4                                    :  Drilling Fluid Density
 DFV .S     41                                      :  Drilling Fluid Viscosity
 DFPH.      9.0                                     :  Drilling Fluid Ph
 DFL .C3    10.0                                    :  Drilling Fluid Loss
 MSS .      TANK                                    :  Mud Sample Source
 RMS .OHMM  1.52                                    :  Resistivity Of Mud Sample
 MST .DEGF  87                                      :  Mud Sample Temperature
 RMFS.OHMM  1.14                                    :  Resistivity Of Mud Filtrate Sample
 MFST.DEGF  83                                      :  Mud Filtrate Sample Temperature
 RMCS.OHMM  1.82                                    :  Resistivity Of Mud Cake Sample
 MCST.DEGF  87                                      :  Mud Cake Sample Temperature
 MFSS.      MEAS.                                   :  Mud Filtrate Sample Source
 MCSS.      CALC.                                   :  Mud Cake Sample Source
 RMB .OHMM  .65                                     :  Mud Resistivity At Bht
 BHT .DEGF  203                                     :  Bottom Hole Temperature
 TSC .      7 HOURS                                 :  Time Since Circulation
 MRT .DEGF  203                                     :  Maximum Recorded Temperature
 LUN .      HL-6559                                 :  Logging Unit Number
 LUL .      RK. SPRINGS                             :  Logging Unit Location
 ENGI.      WARRINGTON                              :  Engineer's Name
 WITN.      ODUM / BERGMAN                          :  Witness' Name
 TSTR.      HDIL/                                   :  N/A
 TSTG.      NA                                      :  N/A
 STUS.      FINAL                                   :  N/A
 LCNM.      BAKER ATLAS                             :  N/A
 LCC .      150                                     :  Logging Company Code
 NATI.      CARBON                                  :  Nation
 OPMD.      OH.WIRE                                 :  N/A
 PANA.      WARRINGTON                              :  N/A
 PCON.      BAKER ATLAS                             :  N/A
~Other information
 CEMENT VOLUME BASED ON 4.5" CASING                                              
 CALIPER VERIFIED IN CASING                                                      
 THANKS FOR USING BAKER ATLAS                                                    
 CREW:  BRAMWELL / MYERS                                                         
 RIG:  CYCLONE #14                                                               
#  Curve Data
~A DEPT      CAL       GR        M2R1      M2R2      M2R3      M2R6      M2R9      M2RX      PE        PORZ      SP        TEN       ZDEN      ZCOR     
# ...
 8127.000     8.246    94.279     6.076     6.527     6.670     6.699     6.653     6.642     3.691     0.901   -28.576     2.286     2.635     0.052
 8127.500     8.245    96.306     5.950     6.400     6.548     6.578     6.531     6.521     3.363    -0.019   -28.695    -5.217     2.650     0.067
 8128.000     8.247    98.714     5.816     6.241     6.391     6.422     6.376     6.367     3.101     0.080   -29.010    -5.997     2.649     0.057
 8128.500     8.251    98.138     5.785     6.178     6.326     6.360     6.313     6.307     3.026     1.358   -29.676    16.648     2.628     0.030
 8129.000     8.254    98.412     5.911     6.277     6.423     6.461     6.413     6.410     3.048     2.570   -30.076    40.512     2.608     0.012
 8129.500     8.252   101.583     6.106     6.451     6.593     6.635     6.586     6.587     2.944     2.525   -29.906    31.948     2.608     0.013
 8130.000     8.248   102.281     6.231     6.556     6.693     6.740     6.690     6.696     2.811     1.989   -29.972    -2.286     2.617     0.020
 8130.500     8.247    99.400     6.265     6.575     6.709     6.758     6.708     6.720     2.835     1.728   -30.422   -29.114     2.621     0.022
 8131.000     8.247    97.409     6.264     6.567     6.698     6.750     6.701     6.718     2.916     1.506   -30.630   -35.174     2.625     0.022
 8131.500     8.248    99.324     6.239     6.545     6.674     6.727     6.679     6.703     2.975     1.463   -30.993   -32.651     2.626     0.021
 8132.000     8.248   103.351     6.165     6.472     6.598     6.651     6.606     6.635     3.035     1.605   -31.458   -31.073     2.624     0.020
 8132.500     8.244   106.321     6.046     6.351     6.471     6.523     6.480     6.515     2.994     1.303   -31.203   -29.589     2.629     0.025
 8133.000     8.234   105.896     5.948     6.254     6.365     6.418     6.377     6.415     2.988     1.060   -30.499   -26.802     2.633     0.028
 8133.500     8.227   103.900     5.946     6.259     6.363     6.416     6.376     6.419     3.182     1.830   -30.144   -23.139     2.620     0.020
 8134.000     8.225   103.090     6.038     6.362     6.461     6.515     6.476     6.523     3.373     2.689   -30.100   -19.635     2.606     0.012
 8134.500     8.228   103.609     6.171     6.502     6.598     6.653     6.614     6.665     3.400     2.613   -30.065   -16.653     2.607     0.016
 8135.000     8.232   103.094     6.312     6.644     6.740     6.796     6.758     6.810     3.396     2.379   -29.914   -16.043     2.611     0.020
 8135.500     8.235   101.155     6.432     6.764     6.865     6.921     6.882     6.935     3.356     2.536   -29.725   -19.036     2.608     0.017
 8136.000     8.239    99.771     6.460     6.792     6.900     6.953     6.915     6.967     3.259     2.406   -29.671   -27.385     2.610     0.014
 8136.500     8.245    99.533     6.344     6.674     6.785     6.835     6.797     6.847     3.229     1.744   -29.634   -38.524     2.621     0.016
 8137.000     8.255    98.773     6.142     6.465     6.575     6.619     6.584     6.629     3.234     1.265   -29.424   -45.739     2.629     0.021
 8137.500     8.261    97.907     6.009     6.323     6.429     6.470     6.437     6.478     3.124     1.071   -29.172   -48.525     2.632     0.025
 8138.000     8.255    98.714     6.022     6.333     6.437     6.475     6.444     6.483     3.076     0.875   -29.137   -49.092     2.636     0.030
 8138.500     8.243   100.222     6.092     6.408     6.511     6.550     6.521     6.557     3.255     0.885   -29.350   -45.597     2.635     0.028
 8139.000     8.239   100.771     6.087     6.415     6.519     6.560     6.534     6.567     3.367     1.283   -29.623   -35.626     2.629     0.017
 8139.500     8.244   100.772     5.968     6.309     6.418     6.461     6.437     6.468     3.239     2.182   -29.674   -26.271     2.614     0.004
 8140.000     8.246   100.940     5.781     6.130     6.243     6.288     6.267     6.297     3.138     2.602   -29.460   -22.232     2.607     0.006
 8140.500     8.243   100.395     5.613     5.955     6.071     6.119     6.099     6.127     3.182     1.920   -29.281   -17.011     2.618     0.023
 8141.000     8.245    99.515     5.548     5.872     5.987     6.037     6.017     6.046     3.235     1.245   -29.368    -8.108     2.629     0.033
 8141.500     8.250    98.978     5.644     5.945     6.057     6.109     6.089     6.120     3.227     1.580   -29.707     0.599     2.624     0.027
 8142.000     8.252    98.555     5.874     6.158     6.264     6.320     6.298     6.332     3.235     2.233   -30.082     5.216     2.613     0.017
 8142.500     8.250    98.670     6.128     6.405     6.506     6.564     6.540     6.578     3.381     2.147   -30.162     6.911     2.615     0.016
 8143.000     8.247    99.847     6.291     6.572     6.670     6.729     6.703     6.745     3.536     1.337   -29.991     7.757     2.628     0.021
 8143.500     8.244   100.374     6.312     6.606     6.704     6.762     6.734     6.780     3.520     0.247   -29.975     9.988     2.646     0.030
 8144.000     8.242    99.211     6.221     6.530     6.631     6.686     6.658     6.706     3.359    -0.316   -30.197    11.287     2.655     0.038
 8144.500     8.244    97.858     6.072     6.389     6.491     6.544     6.515     6.564     3.103    -0.074   -30.351     9.106     2.651     0.039
 8145.000     8.249    97.697     5.901     6.212     6.314     6.364     6.334     6.383     2.869     0.482   -30.325     8.466     2.642     0.034
 8145.500     8.250    99.044     5.764     6.058     6.158     6.205     6.174     6.223     2.845     0.974   -30.256    16.732     2.634     0.030
 8146.000     8.247   101.385     5.717     5.990     6.087     6.134     6.102     6.150     2.992     1.373   -30.196    31.497     2.627     0.028
 8146.500     8.245   102.290     5.766     6.021     6.118     6.166     6.133     6.180     3.013     1.525   -30.066    42.121     2.625     0.026
 8147.000     8.245   100.571     5.880     6.130     6.230     6.282     6.247     6.294     3.048     1.935   -29.805    41.727     2.618     0.020
 8147.500     8.244    98.558     6.028     6.291     6.400     6.456     6.418     6.465     3.357     2.660   -29.503    33.367     2.606     0.013
 8148.000     8.244    97.221     6.168     6.459     6.581     6.641     6.602     6.648     3.646     2.966   -29.256    26.762     2.601     0.010
 8148.500     8.243    96.079     6.247     6.571     6.705     6.768     6.727     6.771     3.482     2.449   -29.060    22.983     2.610     0.013
 8149.000     8.245    96.547     6.256     6.604     6.745     6.809     6.767     6.810     3.172     1.604   -28.902    14.119     2.624     0.021
 8149.500     8.249    99.058     6.248     6.611     6.753     6.814     6.773     6.813     3.085     0.976   -28.838     0.098     2.634     0.033
 8150.000     8.253   100.535     6.267     6.640     6.780     6.838     6.796     6.835     3.153     0.995   -28.878   -10.861     2.634     0.039
 8150.500     8.252    99.858     6.295     6.679     6.815     6.868     6.827     6.864     3.283     1.522   -28.891   -15.678     2.625     0.034
 8151.000     8.248    99.009     6.315     6.715     6.847     6.894     6.853     6.891     3.356     1.828   -28.773   -18.689     2.620     0.023
 8151.500     8.246    99.289     6.348     6.766     6.898     6.941     6.900     6.938     3.360     1.776   -28.542   -21.113     2.621     0.019
 8152.000     8.242   101.130     6.369     6.804     6.937     6.976     6.936     6.974     3.447     1.572   -28.351   -18.923     2.624     0.021
 8152.500     8.238   103.072     6.333     6.774     6.910     6.945     6.906     6.944     3.492     1.586   -28.321   -12.346     2.624     0.025
 8153.000     8.242   102.959     6.254     6.687     6.825     6.859     6.821     6.858     3.309     1.992   -28.386    -4.978     2.617     0.021
 8153.500     8.249   101.298     6.157     6.575     6.713     6.746     6.709     6.746     3.134     2.352   -28.429    -0.494     2.611     0.016
