~Version Information
 VERS.                2.00:   CWLS log ASCII Standard -VERSION 2.00
 WRAP.                  NO:   One line per frame
~Well Information Block
#MNEM.UNIT                 Well Data                         Data Description
#---------  -----------------------------------------  -------------------------------
 STRT.FT                                      0.0000:  Starting Depth
 STOP.FT                                   9827.0000:  Ending Depth
 STEP.FT                                      0.5000:  Level Spacing
 NULL.                                     -999.2500:  Absent Value
 COMP.      ANADARKO PETROLEUM CORPORATION          :  Company
 WELL.      ECHO SPRINGS STATE 5-16                 :  Well
 FLD .      ECHO SPRINGS                            :  Field
 LOC .      2640' FNL & 2640' FEL                   :  Location
 CNTY.      CARBON                                  :  County
 STAT.      WYOMING                                 :  State
 SRVC.      Baker Atlas                             :  Service Company
 DATE.      25-Jul-2003                             :  Log Date
 API .      49-007-22364                            :  API Number
 UWI .      490072236400                            :  Unique Well ID
~Curve Information Block
#MNEM.UNIT           API Codes    Curve Description
#---------        -------------   -------------------------------
 DEPT    .FT      99 995 99  1:   Depth
 CAL     .IN      70 280 99  1:   Caliper
 GR      .GAPI    30 310  1  1:   Gamma Ray counts
 M2R1    .OHMM    99 995 99  1:   Vert resolution matched (2 ft) res - DOI 10 inch
 M2R2    .OHMM    99 995 99  1:   Vert resolution matched (2 ft) res - DOI 20 inch
 M2R3    .OHMM    99 995 99  1:   Vert resolution matched (2 ft) res - DOI 30 inch
 M2R6    .OHMM    99 995 99  1:   Vert resolution matched (2 ft) res - DOI 60 inch
 M2R9    .OHMM    99 995 99  1:   Vert resolution matched (2 ft) res - DOI 90 inch
 M2RX    .OHMM    99 995 99  1:   Vert resolution matched (2 ft) res - DOI 120 inch
 PE      .B/E     45 358  1  1:   Photo Electric Cross Section
 PORZ    .PU      45 890 99  1:   Porosity from ZDEN or ZDNC
 SP      .MV       1  10  1  1:   Spontaneous Potential
 TEN     .LBF     99 635 99  1:   Differential Tension
 ZDEN    .G/C3    45 350  1  1:   ZDL Bulk Density
 ZCOR    .G/C3    45 356 99  1:   ZDL Correction
~Parameter Information Block
#MNEM.UNIT             Parameter Value                     Parameter Description
#---------  -----------------------------------------  -------------------------------
 HIDE.      HIGH DEFINITION INDUCTION LOG           :  Header Identifer
 HID1.      Gamma Ray / Caliper                     :  Header Identifer
 CLAB.      COUNTY                                  :  County Label (Comments)
 SLAB.      STATE                                   :  State Label (Comments)
 FILE.      12521                                   :  File Number
 SECT.      16                                      :  Section
 TOWN.      19 N                                    :  Township
 RANG.      93 W                                    :  Range
 OS1 .      ZDL/CN                                  :  Other Services Line 1
 PDAT.      G.L.                                    :  Permanent Datum
 EPD .FT    6760                                    :  Elevation Of Perm. Datum
 LMF .      K.B.                                    :  Log Measured From
 APD .FT    18                                      :  Above Permanent Datum
 DMF .      K.B.                                    :  Drilling Measured From
 EKB .FT    6778                                    :  Elevation Of Kelly Bushing
 EDF .FT    6777                                    :  Elevation Of Derrick Floor
 EGL .FT    6760                                    :  Elevation Of Ground Level
 RUN .      1                                       :  Run Number
 TRIP.      1                                       :  Trip Number
 SON .      421546                                  :  Service Order Number
 TDD .FT    9820                                    :  Total Depth - Driller
 TDL .FT    9815                                    :  Total Depth - Logger
 BLI .FT    9815                                    :  Bottom Log Interval
 TLI .FT    0                                       :  Top Log Interval
 CSIZ.IN    9.625                                   :  Casing Size
 CBDR.FT    1501                                    :  N/A
 CBLO.FT    1515                                    :  N/A
 BS  .IN    7.875                                   :  Bit Size
 DFT .      GEL/CHEM                                :  Drilling Fluid Type
 DFD .LB/G  10.4                                    :  Drilling Fluid Density
 DFV .S     41                                      :  Drilling Fluid Viscosity
 DFPH.      9.0                                     :  Drilling Fluid Ph
 DFL .C3    10.0                                    :  Drilling Fluid Loss
 MSS .      TANK                                    :  Mud Sample Source
 RMS .OHMM  1.52                                    :  Resistivity Of Mud Sample
 MST .DEGF  87                                      :  Mud Sample Temperature
 RMFS.OHMM  1.14                                    :  Resistivity Of Mud Filtrate Sample
 MFST.DEGF  83                                      :  Mud Filtrate Sample Temperature
 RMCS.OHMM  1.82                                    :  Resistivity Of Mud Cake Sample
 MCST.DEGF  87                                      :  Mud Cake Sample Temperature
 MFSS.      MEAS.                                   :  Mud Filtrate Sample Source
 MCSS.      CALC.                                   :  Mud Cake Sample Source
 RMB .OHMM  .65                                     :  Mud Resistivity At Bht
 BHT .DEGF  203                                     :  Bottom Hole Temperature
 TSC .      7 HOURS                                 :  Time Since Circulation
 MRT .DEGF  203                                     :  Maximum Recorded Temperature
 LUN .      HL-6559                                 :  Logging Unit Number
 LUL .      RK. SPRINGS                             :  Logging Unit Location
 ENGI.      WARRINGTON                              :  Engineer's Name
 WITN.      ODUM / BERGMAN                          :  Witness' Name
 TSTR.      HDIL/                                   :  N/A
 TSTG.      NA                                      :  N/A
 STUS.      FINAL                                   :  N/A
 LCNM.      BAKER ATLAS                             :  N/A
 LCC .      150                                     :  Logging Company Code
 NATI.      CARBON                                  :  Nation
 OPMD.      OH.WIRE                                 :  N/A
 PANA.      WARRINGTON                              :  N/A
 PCON.      BAKER ATLAS                             :  N/A
~Other information
 CEMENT VOLUME BASED ON 4.5" CASING                                              
 CALIPER VERIFIED IN CASING                                                      
 THANKS FOR USING BAKER ATLAS                                                    
 CREW:  BRAMWELL / MYERS                                                         
 RIG:  CYCLONE #14                                                               
#  Curve Data
~A DEPT      CAL       GR        M2R1      M2R2      M2R3      M2R6      M2R9      M2RX      PE        PORZ      SP        TEN       ZDEN      ZCOR     
# ...
 2052.000    10.158    54.067    17.292    23.892    29.288    34.328    37.489    40.998  -999.250  -999.250    19.126    27.997  -999.250  -999.250
 2052.500    10.159    54.697    15.764    22.084    27.336    32.163    35.203    38.500  -999.250  -999.250    19.352    31.191  -999.250  -999.250
 2053.000    10.158    56.537    15.090    21.185    26.353    31.063    34.068    37.275  -999.250  -999.250    19.463    22.444  -999.250  -999.250
 2053.500    10.160    58.173    14.944    20.833    25.919    30.564    33.574    36.758  -999.250  -999.250    19.238    -7.086  -999.250  -999.250
 2054.000    10.164    58.713    15.140    20.869    25.886    30.512    33.551    36.765  -999.250  -999.250    18.797   -22.526  -999.250  -999.250
 2054.500    10.169    59.255    15.594    21.289    26.309    30.985    34.086    37.388  -999.250  -999.250    18.451    -6.773  -999.250  -999.250
 2055.000    10.171    58.754    16.084    21.867    26.954    31.718    34.888    38.308  -999.250  -999.250    18.333    12.829  -999.250  -999.250
 2055.500    10.171    57.146    16.316    22.194    27.324    32.135    35.324    38.828  -999.250  -999.250    18.292     8.588  -999.250  -999.250
 2056.000    10.173    57.128    16.273    22.168    27.272    32.066    35.213    38.743  -999.250  -999.250    18.166   -12.746  -999.250  -999.250
 2056.500    10.175    58.780    16.158    21.993    27.023    31.765    34.840    38.364  -999.250  -999.250    17.972   -22.363  -999.250  -999.250
 2057.000    10.173    60.072    15.975    21.667    26.565    31.222    34.201    37.687  -999.250  -999.250    17.848   -11.662  -999.250  -999.250
 2057.500    10.166    59.399    15.628    21.115    25.830    30.362    33.223    36.629  -999.250  -999.250    17.841     0.401  -999.250  -999.250
 2058.000    10.156    57.652    15.305    20.671    25.256    29.699    32.471    35.814  -999.250  -999.250    17.871    -0.832  -999.250  -999.250
 2058.500    10.151    56.858    15.264    20.703    25.305    29.771    32.537    35.895  -999.250  -999.250    17.930   -12.610  -999.250  -999.250
 2059.000    10.151    56.695    15.433    21.068    25.794    30.366    33.183    36.612  -999.250  -999.250    18.090   -26.312  -999.250  -999.250
 2059.500    10.156    55.069    15.609    21.405    26.254    30.936    33.807    37.298  -999.250  -999.250    18.338   -38.608  -999.250  -999.250
 2060.000    10.165    52.416    15.745    21.589    26.500    31.254    34.154    37.673  -999.250  -999.250    18.621   -53.232  -999.250  -999.250
 2060.500    10.175    51.426    15.833    21.598    26.481    31.249    34.145    37.647  -999.250  -999.250    18.910   -69.558  -999.250  -999.250
 2061.000    10.182    52.386    15.935    21.537    26.333    31.073    33.941    37.400  -999.250  -999.250    19.174   -77.848  -999.250  -999.250
 2061.500    10.177    53.183    16.164    21.605    26.322    31.037    33.886    37.312  -999.250  -999.250    19.404   -72.867  -999.250  -999.250
 2062.000    10.166    54.042    16.451    21.762    26.442    31.136    33.978    37.382  -999.250  -999.250    19.605   -58.178  -999.250  -999.250
 2062.500    10.157    56.925    16.626    21.836    26.505    31.166    33.997    37.367  -999.250  -999.250    19.721   -42.096  -999.250  -999.250
 2063.000    10.158    61.869    16.682    21.857    26.558    31.181    34.009    37.341  -999.250  -999.250    19.709   -33.219  -999.250  -999.250
 2063.500    10.159    68.012    16.758    22.025    26.820    31.438    34.296    37.614  -999.250  -999.250    19.617   -31.720  -999.250  -999.250
 2064.000    10.156    73.039    16.877    22.341    27.261    31.899    34.815    38.139  -999.250  -999.250    19.490   -32.670  -999.250  -999.250
 2064.500    10.157    75.115    16.874    22.502    27.481    32.101    35.058    38.360  -999.250  -999.250    19.312   -37.317  -999.250  -999.250
 2065.000    10.163    74.058    16.635    22.271    27.184    31.710    34.655    37.873  -999.250  -999.250    19.094   -44.873  -999.250  -999.250
 2065.500    10.165    72.767    16.360    21.917    26.713    31.124    34.039    37.155  -999.250  -999.250    18.894   -49.569  -999.250  -999.250
 2066.000    10.163    72.570    16.256    21.789    26.521    30.873    33.785    36.838  -999.250  -999.250    18.711   -50.559  -999.250  -999.250
 2066.500    10.163    70.646    16.116    21.644    26.333    30.649    33.557    36.555  -999.250  -999.250    18.430   -50.742  -999.250  -999.250
 2067.000    10.162    66.256    15.710    21.144    25.744    29.994    32.852    35.759  -999.250  -999.250    18.023   -51.191  -999.250  -999.250
 2067.500    10.161    62.701    15.253    20.540    25.045    29.240    32.036    34.852  -999.250  -999.250    17.643   -55.772  -999.250  -999.250
 2068.000    10.161    60.629    15.061    20.256    24.730    28.944    31.724    34.506  -999.250  -999.250    17.401   -64.846  -999.250  -999.250
 2068.500    10.161    58.694    15.172    20.340    24.833    29.143    31.960    34.765  -999.250  -999.250    17.240   -70.014  -999.250  -999.250
 2069.000    10.161    57.098    15.339    20.432    24.907    29.314    32.173    35.013  -999.250  -999.250    17.147   -67.490  -999.250  -999.250
 2069.500    10.158    55.791    15.335    20.243    24.614    29.060    31.927    34.771  -999.250  -999.250    17.151   -62.476  -999.250  -999.250
 2070.000    10.154    53.641    15.188    19.887    24.128    28.576    31.435    34.270  -999.250  -999.250    17.172   -62.053  -999.250  -999.250
 2070.500    10.151    52.314    14.996    19.565    23.718    28.172    31.037    33.881  -999.250  -999.250    17.183   -66.665  -999.250  -999.250
 2071.000    10.152    52.635    14.851    19.403    23.541    28.035    30.932    33.819  -999.250  -999.250    17.248   -72.812  -999.250  -999.250
 2071.500    10.153    54.363    14.850    19.469    23.659    28.238    31.197    34.169  -999.250  -999.250    17.354   -75.408  -999.250  -999.250
 2072.000    10.157    57.087    15.036    19.747    24.029    28.725    31.765    34.859  -999.250  -999.250    17.470   -75.007  -999.250  -999.250
 2072.500    10.162    60.117    15.402    20.183    24.560    29.388    32.514    35.752  -999.250  -999.250    17.621   -70.880  -999.250  -999.250
 2073.000    10.166    62.745    15.820    20.622    25.061    29.992    33.182    36.561  -999.250  -999.250    17.766   -65.367  -999.250  -999.250
 2073.500    10.142    62.942    16.137    20.920    25.369    30.345    33.560    37.051  -999.250  -999.250    17.831   -65.591  -999.250  -999.250
 2074.000    10.046    62.374    16.290    21.060    25.485    30.450    33.657    37.231  -999.250  -999.250    17.837   -70.763  -999.250  -999.250
 2074.500     9.887    65.145    16.244    21.019    25.404    30.312    33.491    37.114  -999.250  -999.250    17.836   -70.746  -999.250  -999.250
 2075.000     9.740    69.722    16.208    21.058    25.462    30.336    33.522    37.208  -999.250  -999.250    17.805   -62.995  -999.250  -999.250
 2075.500     9.654    72.232    16.681    21.826    26.463    31.477    34.814    38.697  -999.250  -999.250    17.589   -58.017  -999.250  -999.250
 2076.000     9.610    73.691    17.943    23.767    28.989    34.420    38.135    42.439  -999.250  -999.250    17.061   -60.231  -999.250  -999.250
 2076.500     9.582    74.843    19.778    26.730    32.897    38.995    43.308    48.236  -999.250  -999.250    16.432   -64.809  -999.250  -999.250
 2077.000     9.563    73.900    20.899    28.934    35.985    42.658    47.495    52.917  -999.250  -999.250    16.068   -65.051  -999.250  -999.250
 2077.500     9.557    70.615    19.525    27.522    34.564    41.150    45.906    51.119  -999.250  -999.250    16.000   -59.764  -999.250  -999.250
 2078.000     9.560    65.507    16.463    23.245    29.355    35.181    39.284    43.693  -999.250  -999.250    15.974   -56.280  -999.250  -999.250
 2078.500     9.565    60.480    13.796    19.190    24.211    29.158    32.551    36.152  -999.250  -999.250    15.859   -59.881  -999.250  -999.250
