~Version Information
 VERS.                2.00:   CWLS log ASCII Standard -VERSION 2.00
 WRAP.                  NO:   One line per frame
~Well Information Block
#MNEM.UNIT                 Well Data                         Data Description
#---------  -----------------------------------------  -------------------------------
 STRT.FT                                      0.0000:  Starting Depth
 STOP.FT                                   9827.0000:  Ending Depth
 STEP.FT                                      0.5000:  Level Spacing
 NULL.                                     -999.2500:  Absent Value
 COMP.      ANADARKO PETROLEUM CORPORATION          :  Company
 WELL.      ECHO SPRINGS STATE 5-16                 :  Well
 FLD .      ECHO SPRINGS                            :  Field
 LOC .      2640' FNL & 2640' FEL                   :  Location
 CNTY.      CARBON                                  :  County
 STAT.      WYOMING                                 :  State
 SRVC.      Baker Atlas                             :  Service Company
 DATE.      25-Jul-2003                             :  Log Date
 API .      49-007-22364                            :  API Number
 UWI .      490072236400                            :  Unique Well ID
~Curve Information Block
#MNEM.UNIT           API Codes    Curve Description
#---------        -------------   -------------------------------
 DEPT    .FT      99 995 99  1:   Depth
 CAL     .IN      70 280 99  1:   Caliper
 GR      .GAPI    30 310  1  1:   Gamma Ray counts
 M2R1    .OHMM    99 995 99  1:   Vert resolution matched (2 ft) res - DOI 10 inch
 M2R2    .OHMM    99 995 99  1:   Vert resolution matched (2 ft) res - DOI 20 inch
 M2R3    .OHMM    99 995 99  1:   Vert resolution matched (2 ft) res - DOI 30 inch
 M2R6    .OHMM    99 995 99  1:   Vert resolution matched (2 ft) res - DOI 60 inch
 M2R9    .OHMM    99 995 99  1:   Vert resolution matched (2 ft) res - DOI 90 inch
 M2RX    .OHMM    99 995 99  1:   Vert resolution matched (2 ft) res - DOI 120 inch
 PE      .B/E     45 358  1  1:   Photo Electric Cross Section
 PORZ    .PU      45 890 99  1:   Porosity from ZDEN or ZDNC
 SP      .MV       1  10  1  1:   Spontaneous Potential
 TEN     .LBF     99 635 99  1:   Differential Tension
 ZDEN    .G/C3    45 350  1  1:   ZDL Bulk Density
 ZCOR    .G/C3    45 356 99  1:   ZDL Correction
~Parameter Information Block
#MNEM.UNIT             Parameter Value                     Parameter Description
#---------  -----------------------------------------  -------------------------------
 HIDE.      HIGH DEFINITION INDUCTION LOG           :  Header Identifer
 HID1.      Gamma Ray / Caliper                     :  Header Identifer
 CLAB.      COUNTY                                  :  County Label (Comments)
 SLAB.      STATE                                   :  State Label (Comments)
 FILE.      12521                                   :  File Number
 SECT.      16                                      :  Section
 TOWN.      19 N                                    :  Township
 RANG.      93 W                                    :  Range
 OS1 .      ZDL/CN                                  :  Other Services Line 1
 PDAT.      G.L.                                    :  Permanent Datum
 EPD .FT    6760                                    :  Elevation Of Perm. Datum
 LMF .      K.B.                                    :  Log Measured From
 APD .FT    18                                      :  Above Permanent Datum
 DMF .      K.B.                                    :  Drilling Measured From
 EKB .FT    6778                                    :  Elevation Of Kelly Bushing
 EDF .FT    6777                                    :  Elevation Of Derrick Floor
 EGL .FT    6760                                    :  Elevation Of Ground Level
 RUN .      1                                       :  Run Number
 TRIP.      1                                       :  Trip Number
 SON .      421546                                  :  Service Order Number
 TDD .FT    9820                                    :  Total Depth - Driller
 TDL .FT    9815                                    :  Total Depth - Logger
 BLI .FT    9815                                    :  Bottom Log Interval
 TLI .FT    0                                       :  Top Log Interval
 CSIZ.IN    9.625                                   :  Casing Size
 CBDR.FT    1501                                    :  N/A
 CBLO.FT    1515                                    :  N/A
 BS  .IN    7.875                                   :  Bit Size
 DFT .      GEL/CHEM                                :  Drilling Fluid Type
 DFD .LB/G  10.4                                    :  Drilling Fluid Density
 DFV .S     41                                      :  Drilling Fluid Viscosity
 DFPH.      9.0                                     :  Drilling Fluid Ph
 DFL .C3    10.0                                    :  Drilling Fluid Loss
 MSS .      TANK                                    :  Mud Sample Source
 RMS .OHMM  1.52                                    :  Resistivity Of Mud Sample
 MST .DEGF  87                                      :  Mud Sample Temperature
 RMFS.OHMM  1.14                                    :  Resistivity Of Mud Filtrate Sample
 MFST.DEGF  83                                      :  Mud Filtrate Sample Temperature
 RMCS.OHMM  1.82                                    :  Resistivity Of Mud Cake Sample
 MCST.DEGF  87                                      :  Mud Cake Sample Temperature
 MFSS.      MEAS.                                   :  Mud Filtrate Sample Source
 MCSS.      CALC.                                   :  Mud Cake Sample Source
 RMB .OHMM  .65                                     :  Mud Resistivity At Bht
 BHT .DEGF  203                                     :  Bottom Hole Temperature
 TSC .      7 HOURS                                 :  Time Since Circulation
 MRT .DEGF  203                                     :  Maximum Recorded Temperature
 LUN .      HL-6559                                 :  Logging Unit Number
 LUL .      RK. SPRINGS                             :  Logging Unit Location
 ENGI.      WARRINGTON                              :  Engineer's Name
 WITN.      ODUM / BERGMAN                          :  Witness' Name
 TSTR.      HDIL/                                   :  N/A
 TSTG.      NA                                      :  N/A
 STUS.      FINAL                                   :  N/A
 LCNM.      BAKER ATLAS                             :  N/A
 LCC .      150                                     :  Logging Company Code
 NATI.      CARBON                                  :  Nation
 OPMD.      OH.WIRE                                 :  N/A
 PANA.      WARRINGTON                              :  N/A
 PCON.      BAKER ATLAS                             :  N/A
~Other information
 CEMENT VOLUME BASED ON 4.5" CASING                                              
 CALIPER VERIFIED IN CASING                                                      
 THANKS FOR USING BAKER ATLAS                                                    
 CREW:  BRAMWELL / MYERS                                                         
 RIG:  CYCLONE #14                                                               
#  Curve Data
~A DEPT      CAL       GR        M2R1      M2R2      M2R3      M2R6      M2R9      M2RX      PE        PORZ      SP        TEN       ZDEN      ZCOR     
# ...
 9774.000     7.837  -999.250    29.666    39.392    44.259    46.895    47.401    48.600     2.985     2.715    -6.780   -39.327     2.605     0.095
 9774.500     7.832  -999.250    29.333    38.995    43.501    45.984    46.504    47.616     3.069     2.604    -7.313   -44.728     2.607     0.100
 9775.000     7.833  -999.250    31.064    41.197    45.660    48.066    48.643    49.768     2.968     3.143    -7.666   -50.258     2.598     0.093
 9775.500     7.827  -999.250    33.167    43.622    48.190    50.518    51.156    52.319     2.800     4.433    -7.802   -51.876     2.577     0.077
 9776.000     7.816  -999.250    33.708    43.604    48.207    50.427    51.069    52.218     2.803     5.649    -7.779   -54.906     2.557     0.068
 9776.500     7.804  -999.250    32.660    41.365    45.875    48.018    48.616    49.709     2.948     6.155    -7.735   -62.651     2.548     0.072
 9777.000     7.797  -999.250    30.837    38.282    42.575    44.719    45.258    46.300     3.042     6.058    -7.799   -66.021     2.550     0.085
 9777.500     7.793  -999.250    29.060    35.501    39.403    41.788    42.285    43.315     2.899     6.163    -7.974   -58.447     2.548     0.098
 9778.000     7.791  -999.250    28.637    34.584    38.336    41.007    41.508    42.619     2.533     6.893    -8.066   -48.024     2.536     0.101
 9778.500     7.792  -999.250    31.112    37.318    41.385    44.498    45.090    46.465     2.269     7.737    -7.903   -47.531     2.522     0.089
 9779.000     7.795  -999.250    37.082    44.381    49.429    53.152    53.982    55.921     2.276     7.996    -7.552   -57.361     2.518     0.077
 9779.500     7.789  -999.250    43.727    52.204    58.742    63.042    64.236    66.985     2.462     8.121    -7.239   -65.888     2.516     0.076
 9780.000     7.769  -999.250    47.928    56.900    65.108    69.913    71.509    75.128     2.588     8.540    -7.096   -65.276     2.509     0.079
 9780.500     7.737  -999.250    52.792    62.303    72.806    78.020    80.197    84.996     2.535     8.482    -7.040   -57.979     2.510     0.087
 9781.000     7.672  -999.250    59.311    69.431    82.778    88.170    91.181    97.595     2.520     7.323    -6.926   -49.089     2.529     0.115
 9781.500     7.566  -999.250    56.442    65.120    78.924    85.335    88.667    95.691     2.814     6.533    -6.680   -42.121     2.542     0.144
 9782.000     7.471  -999.250    45.953    51.942    63.570    71.089    74.113    80.502     3.250     6.855    -6.370   -40.742     2.537     0.148
 9782.500     7.405  -999.250    42.258    47.384    58.306    66.286    69.427    75.952     3.524     7.262    -6.144   -38.721     2.530     0.141
 9783.000     7.317  -999.250    46.046    52.473    64.881    73.326    77.290    85.228     3.626     7.226    -6.013   -34.786     2.531     0.145
 9783.500     7.175  -999.250    50.965    60.721    75.710    83.991    88.941    98.626     3.774     7.744    -5.856   -40.153     2.522     0.155
 9784.000     7.004  -999.250    51.442    65.022    82.063    89.555    94.992   105.499     4.185     9.003    -5.673   -54.480     2.501     0.161
 9784.500     6.844  -999.250    49.393    66.268    84.736    91.151    96.530   106.853     4.907    10.212    -5.527   -65.539     2.482     0.169
 9785.000     6.737  -999.250    47.504    66.541    85.496    90.823    95.753   105.119     5.550    10.955    -5.359   -74.576     2.469     0.176
 9785.500     6.689  -999.250    47.082    66.554    84.723    89.338    93.650   101.535     5.769    11.434    -5.060   -85.415     2.461     0.176
 9786.000     6.670  -999.250    47.827    65.207    81.057    85.483    89.102    95.086     5.526    11.431    -4.732   -89.942     2.461     0.175
 9786.500     6.658  -999.250    45.030    57.810    69.944    74.581    77.410    81.138     5.120    10.889    -4.779   -84.218     2.470     0.178
 9787.000     6.654  -999.250    35.041    43.154    51.230    55.613    57.618    59.301     4.947    10.574    -5.356   -72.673     2.476     0.180
 9787.500     6.657  -999.250    23.868    28.976    34.041    37.496    38.894    39.368     5.076    10.894    -5.747   -63.791     2.470     0.177
 9788.000     6.659  -999.250    16.871    20.588    24.157    26.891    28.021    27.979     5.236    11.187    -5.238   -61.232     2.465     0.176
 9788.500     6.652  -999.250    14.156    17.604    20.786    23.344    24.486    24.196     5.153    10.891    -4.275   -60.679     2.470     0.181
 9789.000     6.636  -999.250    14.383    18.331    21.850    24.714    26.108    25.607     4.914    10.319    -3.686   -58.655     2.480     0.186
 9789.500     6.622  -999.250    16.951    22.289    26.892    30.535    32.486    31.727     4.741    10.090    -3.538   -49.306     2.484     0.185
 9790.000     6.617  -999.250    21.279    29.045    35.554    40.268    43.125    42.094     4.677    10.288    -3.527   -32.986     2.480     0.182
 9790.500     6.618  -999.250    26.209    36.888    45.641    51.095    55.027    53.872     4.641    10.674    -3.660   -29.142     2.474     0.179
 9791.000     6.620  -999.250    30.480    43.183    53.447    58.757    63.551    62.581     4.686    11.022    -3.962   -49.376     2.468     0.177
 9791.500     6.619  -999.250    34.536    47.119    57.307    61.728    66.953    66.454     4.773    11.051    -4.235   -73.400     2.468     0.177
 9792.000     6.618  -999.250    39.816    49.870    58.469    61.770    67.107    67.246     4.736    10.653    -4.312   -80.121     2.474     0.181
 9792.500     6.621  -999.250    42.113    47.798    53.702    56.121    61.022    61.781     4.648    10.057    -4.286   -69.161     2.484     0.187
 9793.000     6.622  -999.250    36.002    38.334    41.624    43.749    47.337    48.449     4.633     9.721    -4.315   -55.417     2.490     0.191
 9793.500     6.615  -999.250    26.346    27.594    29.349    31.287    33.601    34.802     4.573     9.893    -4.405   -52.690     2.487     0.188
 9794.000     6.610  -999.250    19.446    20.898    22.168    23.782    25.666    26.918     4.529    10.499    -4.435   -55.823     2.477     0.181
 9794.500  -999.250  -999.250    16.750    19.096    20.573    22.162    24.176    25.664     4.643    10.821    -4.274   -49.629     2.471     0.179
 9795.000  -999.250  -999.250    17.202    21.202    23.510    25.622    28.068    30.118     4.809    10.433    -4.008   -38.818     2.478     0.186
 9795.500  -999.250  -999.250    19.655    26.174    30.047    33.163    36.349    39.333     5.808    11.967    -3.804   -39.051     2.453  -999.250
 9796.000  -999.250  -999.250    21.279    29.261    34.443    38.415    42.043    45.717     5.669    11.764    -3.575   -50.983     2.456  -999.250
 9796.500  -999.250  -999.250    19.819    26.349    31.201    35.121    38.280    41.651     5.558    11.521    -3.202   -57.121     2.460  -999.250
 9797.000  -999.250  -999.250    16.969    20.868    24.355    27.510    29.789    32.297     5.543    11.583    -2.793   -49.891     2.459  -999.250
 9797.500  -999.250  -999.250    14.928    16.952    19.280    21.668    23.271    25.039     5.601    11.975    -2.430   -38.723     2.452  -999.250
 9798.000  -999.250  -999.250    14.172    15.196    16.837    18.714    19.909    21.187     5.702    12.294    -2.100   -36.263     2.447  -999.250
 9798.500  -999.250  -999.250    14.863    15.444    16.758    18.363    19.333    20.286     5.861    12.290    -1.861   -42.524     2.447  -999.250
 9799.000  -999.250  -999.250    17.245    17.819    19.088    20.585    21.429    22.120     5.959    12.148    -1.734   -55.370     2.450  -999.250
 9799.500  -999.250  -999.250    21.145    22.348    23.879    25.317    26.036    26.399     5.860    12.081    -1.449   -82.319     2.451  -999.250
 9800.000  -999.250  -999.250    25.573    28.380    30.503    31.707    32.180    32.033  -999.250  -999.250    -0.791  -129.610  -999.250  -999.250
 9800.500  -999.250  -999.250    29.348    34.856    36.816    38.422    38.441    37.531  -999.250  -999.250     0.007  -150.092  -999.250  -999.250
