~Version Information
 VERS.                2.00:   CWLS log ASCII Standard -VERSION 2.00
 WRAP.                  NO:   One line per frame
~Well Information Block
#MNEM.UNIT                 Well Data                         Data Description
#---------  -----------------------------------------  -------------------------------
 STRT.FT                                      0.0000:  Starting Depth
 STOP.FT                                   9827.0000:  Ending Depth
 STEP.FT                                      0.5000:  Level Spacing
 NULL.                                     -999.2500:  Absent Value
 COMP.      ANADARKO PETROLEUM CORPORATION          :  Company
 WELL.      ECHO SPRINGS STATE 5-16                 :  Well
 FLD .      ECHO SPRINGS                            :  Field
 LOC .      2640' FNL & 2640' FEL                   :  Location
 CNTY.      CARBON                                  :  County
 STAT.      WYOMING                                 :  State
 SRVC.      Baker Atlas                             :  Service Company
 DATE.      25-Jul-2003                             :  Log Date
 API .      49-007-22364                            :  API Number
 UWI .      490072236400                            :  Unique Well ID
~Curve Information Block
#MNEM.UNIT           API Codes    Curve Description
#---------        -------------   -------------------------------
 DEPT    .FT      99 995 99  1:   Depth
 CAL     .IN      70 280 99  1:   Caliper
 GR      .GAPI    30 310  1  1:   Gamma Ray counts
 M2R1    .OHMM    99 995 99  1:   Vert resolution matched (2 ft) res - DOI 10 inch
 M2R2    .OHMM    99 995 99  1:   Vert resolution matched (2 ft) res - DOI 20 inch
 M2R3    .OHMM    99 995 99  1:   Vert resolution matched (2 ft) res - DOI 30 inch
 M2R6    .OHMM    99 995 99  1:   Vert resolution matched (2 ft) res - DOI 60 inch
 M2R9    .OHMM    99 995 99  1:   Vert resolution matched (2 ft) res - DOI 90 inch
 M2RX    .OHMM    99 995 99  1:   Vert resolution matched (2 ft) res - DOI 120 inch
 PE      .B/E     45 358  1  1:   Photo Electric Cross Section
 PORZ    .PU      45 890 99  1:   Porosity from ZDEN or ZDNC
 SP      .MV       1  10  1  1:   Spontaneous Potential
 TEN     .LBF     99 635 99  1:   Differential Tension
 ZDEN    .G/C3    45 350  1  1:   ZDL Bulk Density
 ZCOR    .G/C3    45 356 99  1:   ZDL Correction
~Parameter Information Block
#MNEM.UNIT             Parameter Value                     Parameter Description
#---------  -----------------------------------------  -------------------------------
 HIDE.      HIGH DEFINITION INDUCTION LOG           :  Header Identifer
 HID1.      Gamma Ray / Caliper                     :  Header Identifer
 CLAB.      COUNTY                                  :  County Label (Comments)
 SLAB.      STATE                                   :  State Label (Comments)
 FILE.      12521                                   :  File Number
 SECT.      16                                      :  Section
 TOWN.      19 N                                    :  Township
 RANG.      93 W                                    :  Range
 OS1 .      ZDL/CN                                  :  Other Services Line 1
 PDAT.      G.L.                                    :  Permanent Datum
 EPD .FT    6760                                    :  Elevation Of Perm. Datum
 LMF .      K.B.                                    :  Log Measured From
 APD .FT    18                                      :  Above Permanent Datum
 DMF .      K.B.                                    :  Drilling Measured From
 EKB .FT    6778                                    :  Elevation Of Kelly Bushing
 EDF .FT    6777                                    :  Elevation Of Derrick Floor
 EGL .FT    6760                                    :  Elevation Of Ground Level
 RUN .      1                                       :  Run Number
 TRIP.      1                                       :  Trip Number
 SON .      421546                                  :  Service Order Number
 TDD .FT    9820                                    :  Total Depth - Driller
 TDL .FT    9815                                    :  Total Depth - Logger
 BLI .FT    9815                                    :  Bottom Log Interval
 TLI .FT    0                                       :  Top Log Interval
 CSIZ.IN    9.625                                   :  Casing Size
 CBDR.FT    1501                                    :  N/A
 CBLO.FT    1515                                    :  N/A
 BS  .IN    7.875                                   :  Bit Size
 DFT .      GEL/CHEM                                :  Drilling Fluid Type
 DFD .LB/G  10.4                                    :  Drilling Fluid Density
 DFV .S     41                                      :  Drilling Fluid Viscosity
 DFPH.      9.0                                     :  Drilling Fluid Ph
 DFL .C3    10.0                                    :  Drilling Fluid Loss
 MSS .      TANK                                    :  Mud Sample Source
 RMS .OHMM  1.52                                    :  Resistivity Of Mud Sample
 MST .DEGF  87                                      :  Mud Sample Temperature
 RMFS.OHMM  1.14                                    :  Resistivity Of Mud Filtrate Sample
 MFST.DEGF  83                                      :  Mud Filtrate Sample Temperature
 RMCS.OHMM  1.82                                    :  Resistivity Of Mud Cake Sample
 MCST.DEGF  87                                      :  Mud Cake Sample Temperature
 MFSS.      MEAS.                                   :  Mud Filtrate Sample Source
 MCSS.      CALC.                                   :  Mud Cake Sample Source
 RMB .OHMM  .65                                     :  Mud Resistivity At Bht
 BHT .DEGF  203                                     :  Bottom Hole Temperature
 TSC .      7 HOURS                                 :  Time Since Circulation
 MRT .DEGF  203                                     :  Maximum Recorded Temperature
 LUN .      HL-6559                                 :  Logging Unit Number
 LUL .      RK. SPRINGS                             :  Logging Unit Location
 ENGI.      WARRINGTON                              :  Engineer's Name
 WITN.      ODUM / BERGMAN                          :  Witness' Name
 TSTR.      HDIL/                                   :  N/A
 TSTG.      NA                                      :  N/A
 STUS.      FINAL                                   :  N/A
 LCNM.      BAKER ATLAS                             :  N/A
 LCC .      150                                     :  Logging Company Code
 NATI.      CARBON                                  :  Nation
 OPMD.      OH.WIRE                                 :  N/A
 PANA.      WARRINGTON                              :  N/A
 PCON.      BAKER ATLAS                             :  N/A
~Other information
 CEMENT VOLUME BASED ON 4.5" CASING                                              
 CALIPER VERIFIED IN CASING                                                      
 THANKS FOR USING BAKER ATLAS                                                    
 CREW:  BRAMWELL / MYERS                                                         
 RIG:  CYCLONE #14                                                               
#  Curve Data
~A DEPT      CAL       GR        M2R1      M2R2      M2R3      M2R6      M2R9      M2RX      PE        PORZ      SP        TEN       ZDEN      ZCOR     
# ...
 3159.000     8.389    18.658   100.500   139.406   135.577   132.983   132.795   138.629  -999.250  -999.250    -3.792   -93.295  -999.250  -999.250
 3159.500     8.392    18.204   133.216   419.380   293.063   273.943   272.487   299.583  -999.250  -999.250    -4.469   -62.641  -999.250  -999.250
 3160.000     8.399    16.972   155.267   974.350   409.664   377.956   374.666   411.328  -999.250  -999.250    -4.889   -40.830  -999.250  -999.250
 3160.500     8.403    15.863   132.934   667.583   390.020   371.758   368.772   410.197  -999.250  -999.250    -4.933   -41.402  -999.250  -999.250
 3161.000     8.410    16.068   122.272   375.409   322.396   315.323   313.576   342.401  -999.250  -999.250    -4.796   -57.426  -999.250  -999.250
 3161.500     8.417    17.541   125.010   305.082   275.378   269.453   267.347   290.504  -999.250  -999.250    -4.737   -70.648  -999.250  -999.250
 3162.000     8.420    19.514   124.170   275.556   243.925   235.589   231.686   256.589  -999.250  -999.250    -4.752   -68.159  -999.250  -999.250
 3162.500     8.415    22.378   108.079   245.859   213.819   203.596   204.055   233.876  -999.250  -999.250    -4.721   -54.931  -999.250  -999.250
 3163.000     8.411    25.806    94.616   185.836   185.190   173.724   185.382   207.595  -999.250  -999.250    -4.638   -52.960  -999.250  -999.250
 3163.500     8.409    29.185    79.310   134.248   149.660   139.764   155.734   170.759  -999.250  -999.250    -4.540   -69.170  -999.250  -999.250
 3164.000     8.409    35.303    57.012    86.246   102.393    99.283   111.200   119.744  -999.250  -999.250    -4.393   -85.164  -999.250  -999.250
 3164.500     8.407    47.544    37.197    52.127    61.911    63.582    70.513    75.002  -999.250  -999.250    -4.216   -84.058  -999.250  -999.250
 3165.000     8.403    63.178    26.061    34.663    40.488    42.770    47.004    49.615  -999.250  -999.250    -4.254   -67.334  -999.250  -999.250
 3165.500     8.401    73.720    21.409    27.574    31.754    33.770    36.818    38.683  -999.250  -999.250    -4.834   -48.496  -999.250  -999.250
 3166.000     8.400    75.066    19.734    24.910    28.348    30.148    32.627    34.173  -999.250  -999.250    -5.920   -45.909  -999.250  -999.250
 3166.500     8.396    70.732    18.972    23.628    26.646    28.308    30.429    31.802  -999.250  -999.250    -6.946   -65.691  -999.250  -999.250
 3167.000     8.390    66.625    18.305    22.554    25.276    26.850    28.688    29.939  -999.250  -999.250    -7.440   -86.981  -999.250  -999.250
 3167.500     8.383    66.067    17.751    21.666    24.181    25.708    27.321    28.487  -999.250  -999.250    -7.577   -88.244  -999.250  -999.250
 3168.000     8.379    68.399    17.403    21.060    23.435    24.950    26.390    27.504  -999.250  -999.250    -7.836   -73.909  -999.250  -999.250
 3168.500     8.383    69.490    17.137    20.571    22.825    24.337    25.635    26.716  -999.250  -999.250    -8.314   -67.896  -999.250  -999.250
 3169.000     8.391    68.587    16.798    20.004    22.123    23.621    24.792    25.840  -999.250  -999.250    -8.768   -78.140  -999.250  -999.250
 3169.500     8.396    70.475    16.434    19.436    21.422    22.894    23.957    24.977  -999.250  -999.250    -9.112   -88.626  -999.250  -999.250
 3170.000     8.402    76.556    16.299    19.207    21.112    22.570    23.565    24.579  -999.250  -999.250    -9.392   -84.704  -999.250  -999.250
 3170.500     8.408    80.678    16.676    19.677    21.600    23.085    24.064    25.115  -999.250  -999.250    -9.732   -72.474  -999.250  -999.250
 3171.000     8.409    79.779    17.524    20.802    22.848    24.402    25.419    26.547  -999.250  -999.250   -10.173   -64.372  -999.250  -999.250
 3171.500     8.406    76.689    18.329    21.938    24.149    25.785    26.861    28.073  -999.250  -999.250   -10.410   -63.638  -999.250  -999.250
 3172.000     8.401    73.049    18.593    22.425    24.762    26.454    27.574    28.839  -999.250  -999.250   -10.060   -67.527  -999.250  -999.250
 3172.500     8.398    69.722    18.393    22.299    24.703    26.423    27.568    28.854  -999.250  -999.250    -9.205   -77.341  -999.250  -999.250
 3173.000     8.398    67.894    18.135    22.030    24.462    26.201    27.369    28.664  -999.250  -999.250    -8.261   -91.313  -999.250  -999.250
 3173.500     8.397    67.282    18.060    21.902    24.337    26.094    27.289    28.600  -999.250  -999.250    -7.424   -95.889  -999.250  -999.250
 3174.000     8.393    65.822    18.183    21.925    24.340    26.110    27.331    28.662  -999.250  -999.250    -6.725   -83.921  -999.250  -999.250
 3174.500     8.391    63.610    18.393    21.988    24.364    26.132    27.370    28.719  -999.250  -999.250    -6.140   -68.314  -999.250  -999.250
 3175.000     8.394    63.223    18.516    21.967    24.296    26.045    27.285    28.642  -999.250  -999.250    -5.749   -65.562  -999.250  -999.250
 3175.500     8.397    65.909    18.548    21.946    24.250    25.974    27.207    28.570  -999.250  -999.250    -5.629   -72.655  -999.250  -999.250
 3176.000     8.395    68.366    18.632    22.118    24.442    26.154    27.386    28.764  -999.250  -999.250    -5.680   -75.109  -999.250  -999.250
 3176.500     8.395    67.734    18.794    22.472    24.850    26.565    27.807    29.207  -999.250  -999.250    -5.690   -66.629  -999.250  -999.250
 3177.000     8.396    65.743    18.957    22.852    25.289    27.020    28.275    29.695  -999.250  -999.250    -5.478   -57.825  -999.250  -999.250
 3177.500     8.397    64.203    19.046    23.099    25.585    27.341    28.608    30.035  -999.250  -999.250    -4.994   -62.561  -999.250  -999.250
 3178.000     8.397    62.956    19.031    23.138    25.665    27.454    28.731    30.147  -999.250  -999.250    -4.384   -81.992  -999.250  -999.250
 3178.500     8.395    60.948    18.975    23.065    25.645    27.480    28.771    30.168  -999.250  -999.250    -3.876   -96.845  -999.250  -999.250
 3179.000     8.393    58.393    18.952    23.035    25.694    27.597    28.914    30.293  -999.250  -999.250    -3.551   -90.716  -999.250  -999.250
 3179.500     8.394    56.842    18.967    23.076    25.833    27.824    29.179    30.545  -999.250  -999.250    -3.377   -74.287  -999.250  -999.250
 3180.000     8.396    57.609    18.941    23.059    25.909    27.993    29.386    30.739  -999.250  -999.250    -3.362   -67.155  -999.250  -999.250
 3180.500     8.396    60.242    18.828    22.911    25.833    28.001    29.426    30.762  -999.250  -999.250    -3.507   -73.973  -999.250  -999.250
 3181.000     8.394    60.880    18.769    22.845    25.845    28.095    29.557    30.887  -999.250  -999.250    -3.849   -91.336  -999.250  -999.250
 3181.500     8.395    57.414    18.997    23.206    26.342    28.689    30.213    31.571  -999.250  -999.250    -4.533  -114.578  -999.250  -999.250
 3182.000     8.396    54.677    19.739    24.298    27.672    30.146    31.778    33.217  -999.250  -999.250    -5.113  -124.862  -999.250  -999.250
 3182.500     8.393    55.508    21.289    26.493    30.257    32.897    34.706    36.304  -999.250  -999.250    -5.103  -104.683  -999.250  -999.250
 3183.000     8.386    55.601    23.855    30.049    34.380    37.205    39.272    41.125  -999.250  -999.250    -4.887   -66.858  -999.250  -999.250
 3183.500     8.383    54.072    26.388    33.524    38.352    41.249    43.540    45.647  -999.250  -999.250    -5.049   -41.209  -999.250  -999.250
 3184.000     8.385    54.814    26.477    33.677    38.461    41.204    43.460    45.602  -999.250  -999.250    -5.388   -36.057  -999.250  -999.250
 3184.500     8.387    57.609    24.083    30.415    34.625    37.049    39.020    40.962  -999.250  -999.250    -5.654   -29.644  -999.250  -999.250
 3185.000     8.390    60.063    21.648    27.007    30.588    32.683    34.356    36.077  -999.250  -999.250    -5.909   -14.078  -999.250  -999.250
 3185.500     8.394    61.389    20.447    25.212    28.379    30.245    31.735    33.334  -999.250  -999.250    -6.157   -17.304  -999.250  -999.250
