~Version Information
 VERS.                2.00:   CWLS log ASCII Standard -VERSION 2.00
 WRAP.                  NO:   One line per frame
~Well Information Block
#MNEM.UNIT                 Well Data                         Data Description
#---------  -----------------------------------------  -------------------------------
 STRT.FT                                      0.0000:  Starting Depth
 STOP.FT                                   9827.0000:  Ending Depth
 STEP.FT                                      0.5000:  Level Spacing
 NULL.                                     -999.2500:  Absent Value
 COMP.      ANADARKO PETROLEUM CORPORATION          :  Company
 WELL.      ECHO SPRINGS STATE 5-16                 :  Well
 FLD .      ECHO SPRINGS                            :  Field
 LOC .      2640' FNL & 2640' FEL                   :  Location
 CNTY.      CARBON                                  :  County
 STAT.      WYOMING                                 :  State
 SRVC.      Baker Atlas                             :  Service Company
 DATE.      25-Jul-2003                             :  Log Date
 API .      49-007-22364                            :  API Number
 UWI .      490072236400                            :  Unique Well ID
~Curve Information Block
#MNEM.UNIT           API Codes    Curve Description
#---------        -------------   -------------------------------
 DEPT    .FT      99 995 99  1:   Depth
 CAL     .IN      70 280 99  1:   Caliper
 GR      .GAPI    30 310  1  1:   Gamma Ray counts
 M2R1    .OHMM    99 995 99  1:   Vert resolution matched (2 ft) res - DOI 10 inch
 M2R2    .OHMM    99 995 99  1:   Vert resolution matched (2 ft) res - DOI 20 inch
 M2R3    .OHMM    99 995 99  1:   Vert resolution matched (2 ft) res - DOI 30 inch
 M2R6    .OHMM    99 995 99  1:   Vert resolution matched (2 ft) res - DOI 60 inch
 M2R9    .OHMM    99 995 99  1:   Vert resolution matched (2 ft) res - DOI 90 inch
 M2RX    .OHMM    99 995 99  1:   Vert resolution matched (2 ft) res - DOI 120 inch
 PE      .B/E     45 358  1  1:   Photo Electric Cross Section
 PORZ    .PU      45 890 99  1:   Porosity from ZDEN or ZDNC
 SP      .MV       1  10  1  1:   Spontaneous Potential
 TEN     .LBF     99 635 99  1:   Differential Tension
 ZDEN    .G/C3    45 350  1  1:   ZDL Bulk Density
 ZCOR    .G/C3    45 356 99  1:   ZDL Correction
~Parameter Information Block
#MNEM.UNIT             Parameter Value                     Parameter Description
#---------  -----------------------------------------  -------------------------------
 HIDE.      HIGH DEFINITION INDUCTION LOG           :  Header Identifer
 HID1.      Gamma Ray / Caliper                     :  Header Identifer
 CLAB.      COUNTY                                  :  County Label (Comments)
 SLAB.      STATE                                   :  State Label (Comments)
 FILE.      12521                                   :  File Number
 SECT.      16                                      :  Section
 TOWN.      19 N                                    :  Township
 RANG.      93 W                                    :  Range
 OS1 .      ZDL/CN                                  :  Other Services Line 1
 PDAT.      G.L.                                    :  Permanent Datum
 EPD .FT    6760                                    :  Elevation Of Perm. Datum
 LMF .      K.B.                                    :  Log Measured From
 APD .FT    18                                      :  Above Permanent Datum
 DMF .      K.B.                                    :  Drilling Measured From
 EKB .FT    6778                                    :  Elevation Of Kelly Bushing
 EDF .FT    6777                                    :  Elevation Of Derrick Floor
 EGL .FT    6760                                    :  Elevation Of Ground Level
 RUN .      1                                       :  Run Number
 TRIP.      1                                       :  Trip Number
 SON .      421546                                  :  Service Order Number
 TDD .FT    9820                                    :  Total Depth - Driller
 TDL .FT    9815                                    :  Total Depth - Logger
 BLI .FT    9815                                    :  Bottom Log Interval
 TLI .FT    0                                       :  Top Log Interval
 CSIZ.IN    9.625                                   :  Casing Size
 CBDR.FT    1501                                    :  N/A
 CBLO.FT    1515                                    :  N/A
 BS  .IN    7.875                                   :  Bit Size
 DFT .      GEL/CHEM                                :  Drilling Fluid Type
 DFD .LB/G  10.4                                    :  Drilling Fluid Density
 DFV .S     41                                      :  Drilling Fluid Viscosity
 DFPH.      9.0                                     :  Drilling Fluid Ph
 DFL .C3    10.0                                    :  Drilling Fluid Loss
 MSS .      TANK                                    :  Mud Sample Source
 RMS .OHMM  1.52                                    :  Resistivity Of Mud Sample
 MST .DEGF  87                                      :  Mud Sample Temperature
 RMFS.OHMM  1.14                                    :  Resistivity Of Mud Filtrate Sample
 MFST.DEGF  83                                      :  Mud Filtrate Sample Temperature
 RMCS.OHMM  1.82                                    :  Resistivity Of Mud Cake Sample
 MCST.DEGF  87                                      :  Mud Cake Sample Temperature
 MFSS.      MEAS.                                   :  Mud Filtrate Sample Source
 MCSS.      CALC.                                   :  Mud Cake Sample Source
 RMB .OHMM  .65                                     :  Mud Resistivity At Bht
 BHT .DEGF  203                                     :  Bottom Hole Temperature
 TSC .      7 HOURS                                 :  Time Since Circulation
 MRT .DEGF  203                                     :  Maximum Recorded Temperature
 LUN .      HL-6559                                 :  Logging Unit Number
 LUL .      RK. SPRINGS                             :  Logging Unit Location
 ENGI.      WARRINGTON                              :  Engineer's Name
 WITN.      ODUM / BERGMAN                          :  Witness' Name
 TSTR.      HDIL/                                   :  N/A
 TSTG.      NA                                      :  N/A
 STUS.      FINAL                                   :  N/A
 LCNM.      BAKER ATLAS                             :  N/A
 LCC .      150                                     :  Logging Company Code
 NATI.      CARBON                                  :  Nation
 OPMD.      OH.WIRE                                 :  N/A
 PANA.      WARRINGTON                              :  N/A
 PCON.      BAKER ATLAS                             :  N/A
~Other information
 CEMENT VOLUME BASED ON 4.5" CASING                                              
 CALIPER VERIFIED IN CASING                                                      
 THANKS FOR USING BAKER ATLAS                                                    
 CREW:  BRAMWELL / MYERS                                                         
 RIG:  CYCLONE #14                                                               
#  Curve Data
~A DEPT      CAL       GR        M2R1      M2R2      M2R3      M2R6      M2R9      M2RX      PE        PORZ      SP        TEN       ZDEN      ZCOR     
# ...
 9234.000     8.151   116.986     6.638     6.439     6.399     6.397     6.382     6.403     2.791     3.895    13.501    -2.591     2.586     0.006
 9234.500     8.123   119.411     6.662     6.469     6.427     6.428     6.412     6.441     2.876     2.434    13.208    -6.299     2.610     0.019
 9235.000     8.097   117.860     6.923     6.684     6.639     6.647     6.629     6.671     3.247     0.340    13.008   -10.160     2.644     0.032
 9235.500     8.089   112.176     7.072     6.764     6.716     6.737     6.715     6.770     3.366    -0.233    12.894   -12.856     2.654     0.021
 9236.000     8.095   107.751     6.718     6.385     6.335     6.371     6.351     6.414     3.051     1.548    12.672   -19.010     2.624    -0.005
 9236.500     8.100   109.707     6.023     5.703     5.659     5.706     5.690     5.755     2.869     3.670    12.351   -27.359     2.589    -0.012
 9237.000     8.102   116.097     5.589     5.266     5.225     5.286     5.271     5.342     2.823     4.720    11.984   -32.084     2.572    -0.002
 9237.500     8.103   118.601     5.785     5.380     5.329     5.415     5.401     5.487     2.645     5.481    11.541   -35.304     2.560    -0.001
 9238.000     8.099   111.586     6.889     6.232     6.151     6.295     6.277     6.402     2.343     6.149    10.906   -37.468     2.549    -0.002
 9238.500     8.094    96.981     9.568     8.234     8.083     8.378     8.350     8.570     2.243     7.558    10.026   -34.052     2.525     0.005
 9239.000     8.095    78.073    15.347    12.142    11.861    12.572    12.532    12.987     2.416    10.621     8.915   -28.402     2.475     0.013
 9239.500     8.099    58.236    25.401    18.099    17.701    19.332    19.279    20.213     2.545    13.734     7.743   -25.470     2.423     0.015
 9240.000     8.098    42.837    34.127    24.036    24.041    26.662    26.691    28.366     2.465    15.068     6.801   -21.807     2.401     0.016
 9240.500     8.093    35.849    33.437    27.034    28.111    31.442    31.615    33.632     2.311    14.942     6.266   -19.076     2.403     0.017
 9241.000     8.094    35.421    31.079    28.465    30.762    34.342    34.668    36.785     2.166    14.513     5.929   -22.784     2.411     0.024
 9241.500     8.101    36.786    30.579    31.251    35.256    39.940    40.575    43.417     2.115    14.143     5.538   -28.706     2.417     0.034
 9242.000     8.104    37.243    32.030    34.540    40.159    46.030    47.151    50.900     2.445    13.716     5.216   -29.744     2.424     0.047
 9242.500     8.099    36.570    33.243    35.308    41.240    47.806    49.419    53.783     3.400    13.911     5.146   -28.057     2.420     0.058
 9243.000     8.095    35.180    33.463    33.786    38.981    45.772    47.804    52.409     4.657    15.368     5.244   -29.124     2.396     0.054
 9243.500     8.094    33.635    33.448    32.344    36.780    43.705    46.154    50.928     5.273    17.257     5.457   -31.514     2.365     0.035
 9244.000     8.094    32.711    32.230    30.906    34.821    41.894    44.755    49.654     4.945    18.054     5.904   -31.598     2.352     0.022
 9244.500     8.097    32.622    29.706    29.132    32.749    39.955    43.165    48.093     4.460    17.293     6.613   -28.909     2.365     0.030
 9245.000     8.105    32.719    27.681    27.986    31.645    39.164    42.724    47.720     4.235    16.056     7.482   -28.972     2.385     0.046
 9245.500     8.112    32.027    27.306    28.175    32.079    40.230    44.237    49.463     4.054    15.147     8.356   -30.275     2.400     0.057
 9246.000     8.109    30.610    28.993    29.906    34.179    43.320    47.913    53.556     3.665    14.711     9.174   -24.729     2.407     0.061
 9246.500     8.099    29.515    32.791    33.127    37.812    48.246    53.556    59.768     3.232    14.390    10.157   -16.441     2.413     0.057
 9247.000     8.088    29.275    37.768    36.879    41.886    53.612    59.602    66.321     2.965    13.558    11.269   -18.222     2.426     0.053
 9247.500     8.089    29.080    42.804    40.174    45.315    58.037    64.528    71.530     2.943    11.629    12.188   -28.387     2.458     0.058
 9248.000     8.093    28.591    49.156    44.171    49.408    63.037    70.044    77.314     2.967     8.693    12.850   -34.639     2.507     0.064
 9248.500     8.092    27.805    61.429    51.825    57.830    72.769    80.860    88.938     2.858     5.724    13.390   -32.010     2.556     0.059
 9249.000     8.095    26.167    91.019    68.235    77.216    95.204   106.030   116.511     2.807     4.148    13.686   -24.943     2.582     0.046
 9249.500     8.106    24.041   141.604    89.220   103.212   126.553   141.530   155.715     3.073     4.980    13.660   -18.391     2.568     0.042
 9250.000     8.109    22.899   141.418    89.759   103.839   125.040   139.985   153.363     3.426     7.382    13.407   -15.653     2.528     0.045
 9250.500     8.101    23.482    93.477    70.536    79.810    95.019   106.142   115.101     3.499     9.885    13.018   -18.637     2.487     0.045
 9251.000     8.094    24.801    69.362    58.668    65.573    79.031    88.179    94.854     3.225    11.487    12.693   -25.218     2.460     0.039
 9251.500     8.089    26.097    62.852    56.613    63.707    76.801    85.774    91.805     2.880    11.866    12.602   -29.134     2.454     0.035
 9252.000     8.092    26.555    64.080    59.772    67.836    80.748    90.296    96.295     2.755    10.822    12.709   -27.294     2.471     0.041
 9252.500     8.103    25.888    67.783    64.179    72.945    85.737    95.899   101.898     2.818     9.318    12.988   -23.782     2.496     0.050
 9253.000     8.113    25.315    66.168    62.961    71.370    83.930    93.720    99.078     2.862     9.302    13.431   -21.735     2.497     0.048
 9253.500     8.112    26.613    56.661    54.361    61.351    73.212    81.457    85.544     2.786    11.008    13.908   -21.204     2.468     0.037
 9254.000     8.103    29.762    46.634    45.323    50.993    61.730    68.358    71.321     2.675    12.546    14.353   -23.704     2.443     0.031
 9254.500     8.093    32.914    41.585    40.996    46.130    56.155    61.881    64.222     2.674    13.139    14.713   -28.930     2.433     0.030
 9255.000     8.094    34.543    40.413    40.286    45.312    55.144    60.463    62.480     2.816    13.353    14.865   -35.188     2.430     0.031
 9255.500     8.104    35.096    39.608    39.606    44.452    54.094    58.999    60.732     2.930    13.716    14.730   -39.127     2.424     0.036
 9256.000     8.113    36.553    38.230    38.038    42.566    51.872    56.279    57.736     2.796    14.402    14.385   -40.344     2.412     0.045
 9256.500     8.113    39.066    37.907    37.466    41.806    50.965    55.044    56.338     2.480    14.798    14.015   -40.763     2.406     0.055
 9257.000     8.107    40.509    38.890    38.268    42.646    51.928    55.900    57.158     2.307    15.037    13.847   -44.085     2.402     0.059
 9257.500     8.101    40.268    42.830    41.907    46.755    56.633    60.876    62.299     2.374    15.404    13.853   -46.313     2.396     0.052
 9258.000     8.101    39.418    53.023    51.162    57.392    68.522    73.750    75.728     2.486    15.520    13.790   -40.707     2.394     0.037
 9258.500     8.105    38.654    63.766    60.289    68.241    80.225    86.636    89.393     2.512    14.843    13.510   -30.434     2.405     0.027
 9259.000     8.109    37.472    64.612    61.019    69.434    81.549    88.412    91.615     2.579    13.385    13.077   -24.558     2.429     0.027
 9259.500     8.111    35.377    62.155    60.054    68.634    80.882    88.144    91.770     2.745    11.981    12.676   -26.645     2.452     0.030
 9260.000     8.113    32.743    57.727    58.214    66.928    79.339    86.986    91.017     2.859    11.318    12.387   -34.249     2.463     0.030
 9260.500     8.115    31.237    48.590    51.534    59.753    71.943    79.337    83.352     2.870    10.880    11.931   -40.904     2.470     0.036
