~Version Information
 VERS.                2.00:   CWLS log ASCII Standard -VERSION 2.00
 WRAP.                  NO:   One line per frame
~Well Information Block
#MNEM.UNIT                 Well Data                         Data Description
#---------  -----------------------------------------  -------------------------------
 STRT.FT                                      0.0000:  Starting Depth
 STOP.FT                                   9827.0000:  Ending Depth
 STEP.FT                                      0.5000:  Level Spacing
 NULL.                                     -999.2500:  Absent Value
 COMP.      ANADARKO PETROLEUM CORPORATION          :  Company
 WELL.      ECHO SPRINGS STATE 5-16                 :  Well
 FLD .      ECHO SPRINGS                            :  Field
 LOC .      2640' FNL & 2640' FEL                   :  Location
 CNTY.      CARBON                                  :  County
 STAT.      WYOMING                                 :  State
 SRVC.      Baker Atlas                             :  Service Company
 DATE.      25-Jul-2003                             :  Log Date
 API .      49-007-22364                            :  API Number
 UWI .      490072236400                            :  Unique Well ID
~Curve Information Block
#MNEM.UNIT           API Codes    Curve Description
#---------        -------------   -------------------------------
 DEPT    .FT      99 995 99  1:   Depth
 CAL     .IN      70 280 99  1:   Caliper
 GR      .GAPI    30 310  1  1:   Gamma Ray counts
 M2R1    .OHMM    99 995 99  1:   Vert resolution matched (2 ft) res - DOI 10 inch
 M2R2    .OHMM    99 995 99  1:   Vert resolution matched (2 ft) res - DOI 20 inch
 M2R3    .OHMM    99 995 99  1:   Vert resolution matched (2 ft) res - DOI 30 inch
 M2R6    .OHMM    99 995 99  1:   Vert resolution matched (2 ft) res - DOI 60 inch
 M2R9    .OHMM    99 995 99  1:   Vert resolution matched (2 ft) res - DOI 90 inch
 M2RX    .OHMM    99 995 99  1:   Vert resolution matched (2 ft) res - DOI 120 inch
 PE      .B/E     45 358  1  1:   Photo Electric Cross Section
 PORZ    .PU      45 890 99  1:   Porosity from ZDEN or ZDNC
 SP      .MV       1  10  1  1:   Spontaneous Potential
 TEN     .LBF     99 635 99  1:   Differential Tension
 ZDEN    .G/C3    45 350  1  1:   ZDL Bulk Density
 ZCOR    .G/C3    45 356 99  1:   ZDL Correction
~Parameter Information Block
#MNEM.UNIT             Parameter Value                     Parameter Description
#---------  -----------------------------------------  -------------------------------
 HIDE.      HIGH DEFINITION INDUCTION LOG           :  Header Identifer
 HID1.      Gamma Ray / Caliper                     :  Header Identifer
 CLAB.      COUNTY                                  :  County Label (Comments)
 SLAB.      STATE                                   :  State Label (Comments)
 FILE.      12521                                   :  File Number
 SECT.      16                                      :  Section
 TOWN.      19 N                                    :  Township
 RANG.      93 W                                    :  Range
 OS1 .      ZDL/CN                                  :  Other Services Line 1
 PDAT.      G.L.                                    :  Permanent Datum
 EPD .FT    6760                                    :  Elevation Of Perm. Datum
 LMF .      K.B.                                    :  Log Measured From
 APD .FT    18                                      :  Above Permanent Datum
 DMF .      K.B.                                    :  Drilling Measured From
 EKB .FT    6778                                    :  Elevation Of Kelly Bushing
 EDF .FT    6777                                    :  Elevation Of Derrick Floor
 EGL .FT    6760                                    :  Elevation Of Ground Level
 RUN .      1                                       :  Run Number
 TRIP.      1                                       :  Trip Number
 SON .      421546                                  :  Service Order Number
 TDD .FT    9820                                    :  Total Depth - Driller
 TDL .FT    9815                                    :  Total Depth - Logger
 BLI .FT    9815                                    :  Bottom Log Interval
 TLI .FT    0                                       :  Top Log Interval
 CSIZ.IN    9.625                                   :  Casing Size
 CBDR.FT    1501                                    :  N/A
 CBLO.FT    1515                                    :  N/A
 BS  .IN    7.875                                   :  Bit Size
 DFT .      GEL/CHEM                                :  Drilling Fluid Type
 DFD .LB/G  10.4                                    :  Drilling Fluid Density
 DFV .S     41                                      :  Drilling Fluid Viscosity
 DFPH.      9.0                                     :  Drilling Fluid Ph
 DFL .C3    10.0                                    :  Drilling Fluid Loss
 MSS .      TANK                                    :  Mud Sample Source
 RMS .OHMM  1.52                                    :  Resistivity Of Mud Sample
 MST .DEGF  87                                      :  Mud Sample Temperature
 RMFS.OHMM  1.14                                    :  Resistivity Of Mud Filtrate Sample
 MFST.DEGF  83                                      :  Mud Filtrate Sample Temperature
 RMCS.OHMM  1.82                                    :  Resistivity Of Mud Cake Sample
 MCST.DEGF  87                                      :  Mud Cake Sample Temperature
 MFSS.      MEAS.                                   :  Mud Filtrate Sample Source
 MCSS.      CALC.                                   :  Mud Cake Sample Source
 RMB .OHMM  .65                                     :  Mud Resistivity At Bht
 BHT .DEGF  203                                     :  Bottom Hole Temperature
 TSC .      7 HOURS                                 :  Time Since Circulation
 MRT .DEGF  203                                     :  Maximum Recorded Temperature
 LUN .      HL-6559                                 :  Logging Unit Number
 LUL .      RK. SPRINGS                             :  Logging Unit Location
 ENGI.      WARRINGTON                              :  Engineer's Name
 WITN.      ODUM / BERGMAN                          :  Witness' Name
 TSTR.      HDIL/                                   :  N/A
 TSTG.      NA                                      :  N/A
 STUS.      FINAL                                   :  N/A
 LCNM.      BAKER ATLAS                             :  N/A
 LCC .      150                                     :  Logging Company Code
 NATI.      CARBON                                  :  Nation
 OPMD.      OH.WIRE                                 :  N/A
 PANA.      WARRINGTON                              :  N/A
 PCON.      BAKER ATLAS                             :  N/A
~Other information
 CEMENT VOLUME BASED ON 4.5" CASING                                              
 CALIPER VERIFIED IN CASING                                                      
 THANKS FOR USING BAKER ATLAS                                                    
 CREW:  BRAMWELL / MYERS                                                         
 RIG:  CYCLONE #14                                                               
#  Curve Data
~A DEPT      CAL       GR        M2R1      M2R2      M2R3      M2R6      M2R9      M2RX      PE        PORZ      SP        TEN       ZDEN      ZCOR     
# ...
 8667.000     8.346   133.895     7.027     7.153     7.153     7.081     6.961     6.924     3.876     1.928   -19.015   -13.884     2.618     0.040
 8667.500     8.350   127.573     7.329     7.451     7.470     7.421     7.293     7.263     3.854     1.913   -19.333   -16.328     2.618     0.036
 8668.000     8.353   121.217     8.268     8.403     8.459     8.448     8.297     8.272     3.495     0.936   -19.906   -25.681     2.635     0.034
 8668.500     8.353   119.337     9.631     9.779     9.875     9.942     9.756     9.745     3.176    -0.314   -20.631   -25.446     2.655     0.034
 8669.000     8.348   119.751    10.758    10.868    11.043    11.227    11.008    11.019     3.201    -0.625   -21.300   -22.329     2.660     0.031
 8669.500     8.344   118.779    11.099    11.210    11.519    11.797    11.535    11.595     3.224    -0.620   -21.938   -34.331     2.660     0.030
 8670.000     8.347   117.924    11.315    11.563    12.021    12.443    12.153    12.260     2.915    -0.875   -22.657   -52.077     2.664     0.033
 8670.500     8.353   116.666    12.747    13.377    14.120    14.753    14.382    14.567     2.613    -0.918   -23.530   -57.992     2.665     0.035
 8671.000     8.355   108.989    16.737    18.296    19.663    20.677    20.115    20.463     2.550    -0.241   -24.687   -54.996     2.654     0.035
 8671.500     8.357    92.974    23.695    26.964    29.389    30.913    29.990    30.644     2.492     1.117   -26.114   -53.862     2.632     0.034
 8672.000     8.357    76.762    28.810    33.531    36.691    38.710    37.459    38.436     2.392     2.750   -27.483   -55.510     2.605     0.033
 8672.500     8.353    68.518    27.476    31.968    35.090    37.111    35.838    36.897     2.362     3.966   -28.564   -51.182     2.585     0.030
 8673.000     8.353    67.197    24.572    28.239    30.932    32.712    31.537    32.534     2.434     4.758   -29.409   -34.000     2.571     0.027
 8673.500     8.355    68.440    23.501    27.049    29.489    31.149    30.031    31.013     2.547     5.313   -30.093   -16.957     2.562     0.024
 8674.000     8.355    70.062    23.666    27.580    29.927    31.564    30.493    31.501     2.602     5.507   -30.607   -21.492     2.559     0.025
 8674.500     8.357    70.286    23.685    27.767    30.008    31.568    30.603    31.593     2.518     5.225   -30.946   -40.332     2.564     0.027
 8675.000     8.360    69.526    22.745    26.359    28.432    29.784    29.008    29.909     2.443     4.927   -31.124   -43.834     2.569     0.029
 8675.500     8.358    70.114    21.589    24.393    26.272    27.383    26.809    27.583     2.475     5.051   -31.192   -21.334     2.567     0.029
 8676.000     8.353    70.999    21.119    23.189    24.826    25.872    25.464    26.144     2.498     5.319   -31.193     6.450     2.562     0.030
 8676.500     8.349    70.602    21.258    22.763    24.215    25.283    25.006    25.624     2.485     5.423   -31.128    13.538     2.561     0.033
 8677.000     8.348    70.264    21.477    22.566    23.904    25.013    24.839    25.407     2.438     4.977   -30.996    -2.078     2.568     0.039
 8677.500     8.348    71.581    21.328    22.173    23.437    24.586    24.489    25.011     2.420     3.491   -30.890   -21.223     2.592     0.048
 8678.000     8.347    75.188    20.510    21.295    22.495    23.661    23.617    24.090     2.529     1.416   -30.704   -25.024     2.627     0.053
 8678.500     8.347    82.751    19.173    20.013    21.148    22.301    22.288    22.713     2.671    -0.083   -30.230    -5.425     2.651     0.050
 8679.000     8.352    93.578    18.175    19.112    20.213    21.353    21.358    21.754     2.666    -0.238   -29.663    28.250     2.654     0.039
 8679.500     8.357   102.304    18.157    19.209    20.324    21.482    21.500    21.897     2.611     0.917   -29.537    47.516     2.635     0.031
 8680.000     8.356   101.713    19.247    20.426    21.609    22.822    22.853    23.285     2.586     2.538   -29.815    41.046     2.608     0.032
 8680.500     8.351    91.321    21.066    22.357    23.637    24.921    24.974    25.465     2.662     3.442   -30.056    28.443     2.593     0.040
 8681.000     8.350    82.273    22.282    23.582    24.927    26.236    26.310    26.853     2.897     3.813   -30.253    23.779     2.587     0.040
 8681.500     8.355    84.355    21.929    23.180    24.527    25.789    25.878    26.438     3.038     4.346   -30.706    19.441     2.578     0.031
 8682.000     8.356    92.063    20.846    22.123    23.463    24.653    24.749    25.306     2.834     5.326   -31.417    10.674     2.562     0.025
 8682.500     8.349    92.512    20.298    21.750    23.125    24.269    24.369    24.937     2.604     6.338   -32.107     2.650     2.545     0.025
 8683.000     8.339    83.246    20.442    22.159    23.585    24.708    24.808    25.399     2.578     6.758   -32.711     1.135     2.538     0.027
 8683.500     8.337    74.785    20.661    22.587    24.005    25.099    25.188    25.792     2.686     6.200   -33.205     6.785     2.548     0.034
 8684.000     8.338    75.058    20.344    22.280    23.591    24.626    24.689    25.275     2.788     5.179   -33.626    14.355     2.565     0.042
 8684.500     8.341    81.806    19.669    21.444    22.603    23.563    23.592    24.135     2.724     4.592   -34.155    19.838     2.574     0.041
 8685.000     8.346    86.376    19.567    21.190    22.250    23.155    23.146    23.657     2.550     4.753   -34.560    25.594     2.572     0.035
 8685.500     8.347    83.481    20.383    21.960    23.009    23.889    23.841    24.339     2.490     5.410   -34.483    36.212     2.561     0.031
 8686.000     8.342    75.603    21.172    22.745    23.814    24.669    24.575    25.054     2.651     5.627   -34.121    44.347     2.557     0.032
 8686.500     8.339    71.310    20.765    22.264    23.314    24.110    23.969    24.399     2.942     4.919   -33.808    36.590     2.569     0.034
 8687.000     8.344    75.514    19.333    20.672    21.648    22.352    22.170    22.531     3.148     3.797   -33.465    13.836     2.587     0.034
 8687.500     8.353    85.838    18.040    19.234    20.126    20.740    20.521    20.821     3.041     3.120   -33.113    -8.425     2.599     0.034
 8688.000     8.357    94.635    17.798    18.929    19.758    20.296    20.030    20.293     2.770     2.828   -32.956   -19.993     2.603     0.046
 8688.500     8.353    94.203    18.800    19.939    20.671    21.189    20.857    21.100     2.634     2.970   -33.083   -24.219     2.601     0.065
 8689.000     8.351    86.399    20.651    21.812    22.411    22.924    22.509    22.739     2.562     3.314   -33.348   -26.632     2.595     0.073
 8689.500     8.356    80.114    23.162    24.335    24.778    25.287    24.778    24.993     2.496     3.284   -33.546   -23.840     2.596     0.070
 8690.000     8.361    77.989    27.132    28.418    28.713    29.250    28.715    28.827     2.586     2.626   -33.752   -12.910     2.607     0.061
 8690.500     8.355    75.040    32.602    34.370    34.507    35.158    34.550    34.580     2.860     1.802   -34.130    -1.951     2.620     0.049
 8691.000     8.343    71.352    35.598    38.446    38.560    39.363    38.584    38.652     2.955     1.117   -34.469     2.672     2.632     0.041
 8691.500     8.339    70.688    31.903    35.814    36.381    37.078    36.307    36.371     2.775     1.306   -34.502     2.665     2.628     0.036
 8692.000     8.343    71.486    25.036    29.041    29.983    30.517    29.951    29.933     2.662     2.586   -34.322     2.100     2.607     0.039
 8692.500     8.347    70.921    19.895    23.368    24.384    24.790    24.401    24.343     2.815     4.634   -34.179     2.831     2.574     0.048
 8693.000     8.348    70.386    17.304    20.253    21.213    21.557    21.287    21.215     3.082     6.622   -34.227     5.037     2.541     0.057
 8693.500     8.348    70.658    16.359    18.879    19.741    20.070    19.880    19.804     3.230     7.387   -34.626     4.818     2.528     0.066
