~Version Information
 VERS.                2.00:   CWLS log ASCII Standard -VERSION 2.00
 WRAP.                  NO:   One line per frame
~Well Information Block
#MNEM.UNIT                 Well Data                         Data Description
#---------  -----------------------------------------  -------------------------------
 STRT.FT                                      0.0000:  Starting Depth
 STOP.FT                                   9827.0000:  Ending Depth
 STEP.FT                                      0.5000:  Level Spacing
 NULL.                                     -999.2500:  Absent Value
 COMP.      ANADARKO PETROLEUM CORPORATION          :  Company
 WELL.      ECHO SPRINGS STATE 5-16                 :  Well
 FLD .      ECHO SPRINGS                            :  Field
 LOC .      2640' FNL & 2640' FEL                   :  Location
 CNTY.      CARBON                                  :  County
 STAT.      WYOMING                                 :  State
 SRVC.      Baker Atlas                             :  Service Company
 DATE.      25-Jul-2003                             :  Log Date
 API .      49-007-22364                            :  API Number
 UWI .      490072236400                            :  Unique Well ID
~Curve Information Block
#MNEM.UNIT           API Codes    Curve Description
#---------        -------------   -------------------------------
 DEPT    .FT      99 995 99  1:   Depth
 CAL     .IN      70 280 99  1:   Caliper
 GR      .GAPI    30 310  1  1:   Gamma Ray counts
 M2R1    .OHMM    99 995 99  1:   Vert resolution matched (2 ft) res - DOI 10 inch
 M2R2    .OHMM    99 995 99  1:   Vert resolution matched (2 ft) res - DOI 20 inch
 M2R3    .OHMM    99 995 99  1:   Vert resolution matched (2 ft) res - DOI 30 inch
 M2R6    .OHMM    99 995 99  1:   Vert resolution matched (2 ft) res - DOI 60 inch
 M2R9    .OHMM    99 995 99  1:   Vert resolution matched (2 ft) res - DOI 90 inch
 M2RX    .OHMM    99 995 99  1:   Vert resolution matched (2 ft) res - DOI 120 inch
 PE      .B/E     45 358  1  1:   Photo Electric Cross Section
 PORZ    .PU      45 890 99  1:   Porosity from ZDEN or ZDNC
 SP      .MV       1  10  1  1:   Spontaneous Potential
 TEN     .LBF     99 635 99  1:   Differential Tension
 ZDEN    .G/C3    45 350  1  1:   ZDL Bulk Density
 ZCOR    .G/C3    45 356 99  1:   ZDL Correction
~Parameter Information Block
#MNEM.UNIT             Parameter Value                     Parameter Description
#---------  -----------------------------------------  -------------------------------
 HIDE.      HIGH DEFINITION INDUCTION LOG           :  Header Identifer
 HID1.      Gamma Ray / Caliper                     :  Header Identifer
 CLAB.      COUNTY                                  :  County Label (Comments)
 SLAB.      STATE                                   :  State Label (Comments)
 FILE.      12521                                   :  File Number
 SECT.      16                                      :  Section
 TOWN.      19 N                                    :  Township
 RANG.      93 W                                    :  Range
 OS1 .      ZDL/CN                                  :  Other Services Line 1
 PDAT.      G.L.                                    :  Permanent Datum
 EPD .FT    6760                                    :  Elevation Of Perm. Datum
 LMF .      K.B.                                    :  Log Measured From
 APD .FT    18                                      :  Above Permanent Datum
 DMF .      K.B.                                    :  Drilling Measured From
 EKB .FT    6778                                    :  Elevation Of Kelly Bushing
 EDF .FT    6777                                    :  Elevation Of Derrick Floor
 EGL .FT    6760                                    :  Elevation Of Ground Level
 RUN .      1                                       :  Run Number
 TRIP.      1                                       :  Trip Number
 SON .      421546                                  :  Service Order Number
 TDD .FT    9820                                    :  Total Depth - Driller
 TDL .FT    9815                                    :  Total Depth - Logger
 BLI .FT    9815                                    :  Bottom Log Interval
 TLI .FT    0                                       :  Top Log Interval
 CSIZ.IN    9.625                                   :  Casing Size
 CBDR.FT    1501                                    :  N/A
 CBLO.FT    1515                                    :  N/A
 BS  .IN    7.875                                   :  Bit Size
 DFT .      GEL/CHEM                                :  Drilling Fluid Type
 DFD .LB/G  10.4                                    :  Drilling Fluid Density
 DFV .S     41                                      :  Drilling Fluid Viscosity
 DFPH.      9.0                                     :  Drilling Fluid Ph
 DFL .C3    10.0                                    :  Drilling Fluid Loss
 MSS .      TANK                                    :  Mud Sample Source
 RMS .OHMM  1.52                                    :  Resistivity Of Mud Sample
 MST .DEGF  87                                      :  Mud Sample Temperature
 RMFS.OHMM  1.14                                    :  Resistivity Of Mud Filtrate Sample
 MFST.DEGF  83                                      :  Mud Filtrate Sample Temperature
 RMCS.OHMM  1.82                                    :  Resistivity Of Mud Cake Sample
 MCST.DEGF  87                                      :  Mud Cake Sample Temperature
 MFSS.      MEAS.                                   :  Mud Filtrate Sample Source
 MCSS.      CALC.                                   :  Mud Cake Sample Source
 RMB .OHMM  .65                                     :  Mud Resistivity At Bht
 BHT .DEGF  203                                     :  Bottom Hole Temperature
 TSC .      7 HOURS                                 :  Time Since Circulation
 MRT .DEGF  203                                     :  Maximum Recorded Temperature
 LUN .      HL-6559                                 :  Logging Unit Number
 LUL .      RK. SPRINGS                             :  Logging Unit Location
 ENGI.      WARRINGTON                              :  Engineer's Name
 WITN.      ODUM / BERGMAN                          :  Witness' Name
 TSTR.      HDIL/                                   :  N/A
 TSTG.      NA                                      :  N/A
 STUS.      FINAL                                   :  N/A
 LCNM.      BAKER ATLAS                             :  N/A
 LCC .      150                                     :  Logging Company Code
 NATI.      CARBON                                  :  Nation
 OPMD.      OH.WIRE                                 :  N/A
 PANA.      WARRINGTON                              :  N/A
 PCON.      BAKER ATLAS                             :  N/A
~Other information
 CEMENT VOLUME BASED ON 4.5" CASING                                              
 CALIPER VERIFIED IN CASING                                                      
 THANKS FOR USING BAKER ATLAS                                                    
 CREW:  BRAMWELL / MYERS                                                         
 RIG:  CYCLONE #14                                                               
#  Curve Data
~A DEPT      CAL       GR        M2R1      M2R2      M2R3      M2R6      M2R9      M2RX      PE        PORZ      SP        TEN       ZDEN      ZCOR     
# ...
 4806.000     7.874    52.921    19.543    22.588    24.715    27.380    29.565    32.656  -999.250  -999.250   -30.318  -139.645  -999.250  -999.250
 4806.500     7.871    44.661    19.618    22.609    24.641    27.286    29.488    32.571  -999.250  -999.250   -31.364  -139.398  -999.250  -999.250
 4807.000     7.875    39.857    19.852    22.818    24.795    27.447    29.681    32.774  -999.250  -999.250   -32.644  -144.490  -999.250  -999.250
 4807.500     7.884    38.094    19.975    22.926    24.876    27.537    29.797    32.885  -999.250  -999.250   -33.275  -150.675  -999.250  -999.250
 4808.000     7.885    37.681    19.891    22.850    24.799    27.462    29.734    32.796  -999.250  -999.250   -33.493  -150.539  -999.250  -999.250
 4808.500     7.880    37.200    19.657    22.670    24.651    27.312    29.590    32.619  -999.250  -999.250   -33.761  -140.952  -999.250  -999.250
 4809.000     7.882    36.192    19.387    22.510    24.551    27.216    29.502    32.510  -999.250  -999.250   -34.158  -134.337  -999.250  -999.250
 4809.500     7.893    35.012    19.186    22.447    24.567    27.244    29.541    32.550  -999.250  -999.250   -34.438  -140.657  -999.250  -999.250
 4810.000     7.905    34.367    19.093    22.475    24.670    27.361    29.669    32.695  -999.250  -999.250   -34.434  -153.605  -999.250  -999.250
 4810.500     7.913    34.631    19.076    22.527    24.770    27.469    29.776    32.824  -999.250  -999.250   -34.226  -160.839  -999.250  -999.250
 4811.000     7.918    36.350    19.053    22.505    24.752    27.443    29.725    32.786  -999.250  -999.250   -33.999  -155.840  -999.250  -999.250
 4811.500     7.921    38.540    18.992    22.374    24.582    27.249    29.480    32.540  -999.250  -999.250   -33.889  -132.309  -999.250  -999.250
 4812.000     7.921    39.550    18.919    22.162    24.305    26.937    29.100    32.148  -999.250  -999.250   -33.956   -93.463  -999.250  -999.250
 4812.500     7.919    39.986    18.811    21.873    23.938    26.529    28.615    31.642  -999.250  -999.250   -34.156   -61.205  -999.250  -999.250
 4813.000     7.919    43.156    18.639    21.551    23.545    26.097    28.104    31.110  -999.250  -999.250   -34.251   -57.170  -999.250  -999.250
 4813.500     7.920    50.776    18.434    21.306    23.259    25.786    27.732    30.732  -999.250  -999.250   -33.985   -73.827  -999.250  -999.250
 4814.000     7.920    61.601    18.225    21.175    23.121    25.643    27.550    30.565  -999.250  -999.250   -33.657   -86.053  -999.250  -999.250
 4814.500     7.918    70.121    18.022    21.088    23.048    25.579    27.465    30.505  -999.250  -999.250   -33.761   -88.995  -999.250  -999.250
 4815.000     7.914    69.289    18.005    21.163    23.155    25.720    27.614    30.702  -999.250  -999.250   -34.301   -90.997  -999.250  -999.250
 4815.500     7.905    58.257    18.262    21.461    23.504    26.134    28.070    31.236  -999.250  -999.250   -35.032   -91.410  -999.250  -999.250
 4816.000     7.900    45.484    18.511    21.676    23.756    26.451    28.434    31.660  -999.250  -999.250   -35.937   -91.430  -999.250  -999.250
 4816.500     7.902    38.454    18.610    21.697    23.790    26.533    28.557    31.806  -999.250  -999.250   -36.869  -102.311  -999.250  -999.250
 4817.000     7.908    36.541    18.780    21.831    23.944    26.747    28.829    32.108  -999.250  -999.250   -37.484  -124.228  -999.250  -999.250
 4817.500     7.915    36.520    19.201    22.307    24.459    27.354    29.529    32.874  -999.250  -999.250   -37.667  -145.637  -999.250  -999.250
 4818.000     7.920    37.508    19.920    23.153    25.362    28.380    30.682    34.133  -999.250  -999.250   -37.593  -158.153  -999.250  -999.250
 4818.500     7.915    39.335    20.771    24.133    26.398    29.538    31.970    35.529  -999.250  -999.250   -37.432  -159.155  -999.250  -999.250
 4819.000     7.896    40.835    21.255    24.643    26.923    30.121    32.621    36.205  -999.250  -999.250   -37.225  -154.791  -999.250  -999.250
 4819.500     7.875    41.380    21.229    24.544    26.807    29.988    32.476    35.988  -999.250  -999.250   -36.981  -155.213  -999.250  -999.250
 4820.000     7.859    41.884    21.045    24.292    26.551    29.693    32.134    35.546  -999.250  -999.250   -36.736  -159.181  -999.250  -999.250
 4820.500     7.850    43.631    20.943    24.199    26.489    29.605    31.996    35.325  -999.250  -999.250   -36.512  -158.103  -999.250  -999.250
 4821.000     7.845    44.741    21.002    24.373    26.725    29.838    32.187    35.463  -999.250  -999.250   -36.306  -153.614  -999.250  -999.250
 4821.500     7.845    43.120    21.015    24.585    27.001    30.104    32.395    35.615  -999.250  -999.250   -36.209  -151.090  -999.250  -999.250
 4822.000     7.845    40.388    20.572    24.341    26.777    29.808    31.989    35.086  -999.250  -999.250   -36.502  -149.520  -999.250  -999.250
 4822.500     7.844    37.538    19.721    23.665    26.080    28.979    31.010    33.928  -999.250  -999.250   -36.750  -147.908  -999.250  -999.250
 4823.000     7.842    34.706    19.109    23.304    25.735    28.517    30.427    33.209  -999.250  -999.250   -36.225  -147.640  -999.250  -999.250
 4823.500     7.845    37.267    19.034    23.596    26.107    28.820    30.669    33.394  -999.250  -999.250   -35.160  -145.709  -999.250  -999.250
 4824.000     7.850    49.890    18.946    23.763    26.315    28.934    30.717    33.371  -999.250  -999.250   -34.164  -139.617  -999.250  -999.250
 4824.500     7.849    65.105    18.304    22.991    25.436    27.875    29.534    32.017  -999.250  -999.250   -33.094  -138.877  -999.250  -999.250
 4825.000     7.844    73.104    17.718    22.031    24.293    26.549    28.087    30.389  -999.250  -999.250   -32.143  -151.800  -999.250  -999.250
 4825.500     7.844    72.628    17.986    21.989    24.120    26.287    27.785    30.015  -999.250  -999.250   -32.208  -169.856  -999.250  -999.250
 4826.000     7.852    68.210    18.824    22.620    24.658    26.808    28.328    30.562  -999.250  -999.250   -33.711  -173.046  -999.250  -999.250
 4826.500     7.857    62.021    19.299    22.876    24.790    26.911    28.444    30.654  -999.250  -999.250   -35.496  -152.430  -999.250  -999.250
 4827.000     7.856    54.813    19.327    22.709    24.489    26.566    28.097    30.254  -999.250  -999.250   -36.043  -115.930  -999.250  -999.250
 4827.500     7.850    48.463    19.597    22.939    24.642    26.713    28.281    30.431  -999.250  -999.250   -35.592   -84.026  -999.250  -999.250
 4828.000     7.849    44.956    20.148    23.559    25.223    27.319    28.957    31.142  -999.250  -999.250   -35.384   -74.774  -999.250  -999.250
 4828.500     7.854    44.260    20.225    23.575    25.164    27.239    28.907    31.076  -999.250  -999.250   -35.632   -92.614  -999.250  -999.250
 4829.000     7.863    45.821    19.717    22.805    24.276    26.278    27.920    30.005  -999.250  -999.250   -35.886  -122.893  -999.250  -999.250
 4829.500     7.879    51.181    19.190    21.970    23.342    25.270    26.882    28.885  -999.250  -999.250   -35.972  -136.215  -999.250  -999.250
 4830.000     7.909    61.831    18.658    21.180    22.483    24.353    25.938    27.875  -999.250  -999.250   -35.590  -114.752  -999.250  -999.250
 4830.500     7.945    75.646    17.777    20.076    21.314    23.114    24.650    26.500  -999.250  -999.250   -34.506   -77.850  -999.250  -999.250
 4831.000     7.968    84.554    16.613    18.705    19.871    21.589    23.054    24.800  -999.250  -999.250   -32.783   -62.535  -999.250  -999.250
 4831.500     7.972    80.392    15.676    17.608    18.715    20.378    21.790    23.464  -999.250  -999.250   -31.305   -81.733  -999.250  -999.250
 4832.000     7.969    65.732    15.595    17.462    18.554    20.243    21.675    23.372  -999.250  -999.250   -31.390  -120.207  -999.250  -999.250
 4832.500     7.973    51.415    16.655    18.584    19.717    21.544    23.097    24.946  -999.250  -999.250   -33.037  -154.880  -999.250  -999.250
