~Version Information
 VERS.                2.00:   CWLS log ASCII Standard -VERSION 2.00
 WRAP.                  NO:   One line per frame
~Well Information Block
#MNEM.UNIT                 Well Data                         Data Description
#---------  -----------------------------------------  -------------------------------
 STRT.FT                                      0.0000:  Starting Depth
 STOP.FT                                   9827.0000:  Ending Depth
 STEP.FT                                      0.5000:  Level Spacing
 NULL.                                     -999.2500:  Absent Value
 COMP.      ANADARKO PETROLEUM CORPORATION          :  Company
 WELL.      ECHO SPRINGS STATE 5-16                 :  Well
 FLD .      ECHO SPRINGS                            :  Field
 LOC .      2640' FNL & 2640' FEL                   :  Location
 CNTY.      CARBON                                  :  County
 STAT.      WYOMING                                 :  State
 SRVC.      Baker Atlas                             :  Service Company
 DATE.      25-Jul-2003                             :  Log Date
 API .      49-007-22364                            :  API Number
 UWI .      490072236400                            :  Unique Well ID
~Curve Information Block
#MNEM.UNIT           API Codes    Curve Description
#---------        -------------   -------------------------------
 DEPT    .FT      99 995 99  1:   Depth
 CAL     .IN      70 280 99  1:   Caliper
 GR      .GAPI    30 310  1  1:   Gamma Ray counts
 M2R1    .OHMM    99 995 99  1:   Vert resolution matched (2 ft) res - DOI 10 inch
 M2R2    .OHMM    99 995 99  1:   Vert resolution matched (2 ft) res - DOI 20 inch
 M2R3    .OHMM    99 995 99  1:   Vert resolution matched (2 ft) res - DOI 30 inch
 M2R6    .OHMM    99 995 99  1:   Vert resolution matched (2 ft) res - DOI 60 inch
 M2R9    .OHMM    99 995 99  1:   Vert resolution matched (2 ft) res - DOI 90 inch
 M2RX    .OHMM    99 995 99  1:   Vert resolution matched (2 ft) res - DOI 120 inch
 PE      .B/E     45 358  1  1:   Photo Electric Cross Section
 PORZ    .PU      45 890 99  1:   Porosity from ZDEN or ZDNC
 SP      .MV       1  10  1  1:   Spontaneous Potential
 TEN     .LBF     99 635 99  1:   Differential Tension
 ZDEN    .G/C3    45 350  1  1:   ZDL Bulk Density
 ZCOR    .G/C3    45 356 99  1:   ZDL Correction
~Parameter Information Block
#MNEM.UNIT             Parameter Value                     Parameter Description
#---------  -----------------------------------------  -------------------------------
 HIDE.      HIGH DEFINITION INDUCTION LOG           :  Header Identifer
 HID1.      Gamma Ray / Caliper                     :  Header Identifer
 CLAB.      COUNTY                                  :  County Label (Comments)
 SLAB.      STATE                                   :  State Label (Comments)
 FILE.      12521                                   :  File Number
 SECT.      16                                      :  Section
 TOWN.      19 N                                    :  Township
 RANG.      93 W                                    :  Range
 OS1 .      ZDL/CN                                  :  Other Services Line 1
 PDAT.      G.L.                                    :  Permanent Datum
 EPD .FT    6760                                    :  Elevation Of Perm. Datum
 LMF .      K.B.                                    :  Log Measured From
 APD .FT    18                                      :  Above Permanent Datum
 DMF .      K.B.                                    :  Drilling Measured From
 EKB .FT    6778                                    :  Elevation Of Kelly Bushing
 EDF .FT    6777                                    :  Elevation Of Derrick Floor
 EGL .FT    6760                                    :  Elevation Of Ground Level
 RUN .      1                                       :  Run Number
 TRIP.      1                                       :  Trip Number
 SON .      421546                                  :  Service Order Number
 TDD .FT    9820                                    :  Total Depth - Driller
 TDL .FT    9815                                    :  Total Depth - Logger
 BLI .FT    9815                                    :  Bottom Log Interval
 TLI .FT    0                                       :  Top Log Interval
 CSIZ.IN    9.625                                   :  Casing Size
 CBDR.FT    1501                                    :  N/A
 CBLO.FT    1515                                    :  N/A
 BS  .IN    7.875                                   :  Bit Size
 DFT .      GEL/CHEM                                :  Drilling Fluid Type
 DFD .LB/G  10.4                                    :  Drilling Fluid Density
 DFV .S     41                                      :  Drilling Fluid Viscosity
 DFPH.      9.0                                     :  Drilling Fluid Ph
 DFL .C3    10.0                                    :  Drilling Fluid Loss
 MSS .      TANK                                    :  Mud Sample Source
 RMS .OHMM  1.52                                    :  Resistivity Of Mud Sample
 MST .DEGF  87                                      :  Mud Sample Temperature
 RMFS.OHMM  1.14                                    :  Resistivity Of Mud Filtrate Sample
 MFST.DEGF  83                                      :  Mud Filtrate Sample Temperature
 RMCS.OHMM  1.82                                    :  Resistivity Of Mud Cake Sample
 MCST.DEGF  87                                      :  Mud Cake Sample Temperature
 MFSS.      MEAS.                                   :  Mud Filtrate Sample Source
 MCSS.      CALC.                                   :  Mud Cake Sample Source
 RMB .OHMM  .65                                     :  Mud Resistivity At Bht
 BHT .DEGF  203                                     :  Bottom Hole Temperature
 TSC .      7 HOURS                                 :  Time Since Circulation
 MRT .DEGF  203                                     :  Maximum Recorded Temperature
 LUN .      HL-6559                                 :  Logging Unit Number
 LUL .      RK. SPRINGS                             :  Logging Unit Location
 ENGI.      WARRINGTON                              :  Engineer's Name
 WITN.      ODUM / BERGMAN                          :  Witness' Name
 TSTR.      HDIL/                                   :  N/A
 TSTG.      NA                                      :  N/A
 STUS.      FINAL                                   :  N/A
 LCNM.      BAKER ATLAS                             :  N/A
 LCC .      150                                     :  Logging Company Code
 NATI.      CARBON                                  :  Nation
 OPMD.      OH.WIRE                                 :  N/A
 PANA.      WARRINGTON                              :  N/A
 PCON.      BAKER ATLAS                             :  N/A
~Other information
 CEMENT VOLUME BASED ON 4.5" CASING                                              
 CALIPER VERIFIED IN CASING                                                      
 THANKS FOR USING BAKER ATLAS                                                    
 CREW:  BRAMWELL / MYERS                                                         
 RIG:  CYCLONE #14                                                               
#  Curve Data
~A DEPT      CAL       GR        M2R1      M2R2      M2R3      M2R6      M2R9      M2RX      PE        PORZ      SP        TEN       ZDEN      ZCOR     
# ...
 5913.000     8.621   104.276     6.958     7.568     7.926     8.201     8.287     8.422  -999.250  -999.250   -30.678   138.529  -999.250  -999.250
 5913.500     8.622    99.068     8.067     8.688     9.107     9.439     9.543     9.712  -999.250  -999.250   -31.719    98.430  -999.250  -999.250
 5914.000     8.621    89.114    10.699    11.399    11.961    12.406    12.549    12.786  -999.250  -999.250   -31.526    70.212  -999.250  -999.250
 5914.500     8.621    82.902    13.152    13.959    14.655    15.199    15.375    15.678  -999.250  -999.250   -30.835    68.912  -999.250  -999.250
 5915.000     8.631    86.377    11.880    12.799    13.471    13.978    14.142    14.430  -999.250  -999.250   -31.059    92.753  -999.250  -999.250
 5915.500     8.645    91.645     9.037     9.918    10.474    10.869    11.000    11.227  -999.250  -999.250   -32.020   123.050  -999.250  -999.250
 5916.000     8.654    89.943     7.859     8.748     9.260     9.596     9.715     9.913  -999.250  -999.250   -32.234   106.929  -999.250  -999.250
 5916.500     8.648    83.581     8.483     9.527    10.102    10.449    10.590    10.804  -999.250  -999.250   -31.493    29.475  -999.250  -999.250
 5917.000     8.637    77.917    10.415    11.808    12.518    12.912    13.102    13.360  -999.250  -999.250   -31.074   -36.810  -999.250  -999.250
 5917.500     8.653    78.978    10.757    12.332    13.070    13.453    13.667    13.928  -999.250  -999.250   -31.151   -46.185  -999.250  -999.250
 5918.000     8.722    89.173     8.688    10.125    10.753    11.056    11.241    11.449  -999.250  -999.250   -31.306   -16.295  -999.250  -999.250
 5918.500     8.831   101.365     6.663     7.870     8.380     8.605     8.750     8.907  -999.250  -999.250   -31.799    29.739  -999.250  -999.250
 5919.000     8.937   108.906     5.526     6.578     7.014     7.194     7.312     7.440  -999.250  -999.250   -31.886    56.661  -999.250  -999.250
 5919.500     8.997   112.687     5.063     6.006     6.388     6.548     6.648     6.762  -999.250  -999.250   -31.215    24.077  -999.250  -999.250
 5920.000     9.010   113.075     5.047     5.878     6.209     6.361     6.447     6.557  -999.250  -999.250   -30.813   -37.659  -999.250  -999.250
 5920.500     8.973   110.259     5.379     6.064     6.338     6.498     6.573     6.685  -999.250  -999.250   -31.133   -68.553  -999.250  -999.250
 5921.000     8.863   106.085     6.102     6.610     6.834     7.019     7.088     7.210  -999.250  -999.250   -31.615   -61.136  -999.250  -999.250
 5921.500     8.716    99.742     7.252     7.581     7.790     8.024     8.094     8.235  -999.250  -999.250   -32.225   -39.410  -999.250  -999.250
 5922.000     8.627    90.037     8.748     8.998     9.261     9.573     9.653     9.824  -999.250  -999.250   -33.036   -23.345  -999.250  -999.250
 5922.500     8.619    80.576    10.135    10.558    10.974    11.375    11.477    11.686  -999.250  -999.250   -33.932   -22.330  -999.250  -999.250
 5923.000     8.638    78.547    10.318    11.154    11.761    12.209    12.337    12.568  -999.250  -999.250   -34.500   -29.461  -999.250  -999.250
 5923.500     8.651    87.140     9.159    10.279    10.973    11.388    11.533    11.758  -999.250  -999.250   -34.114   -30.453  -999.250  -999.250
 5924.000     8.659   100.411     7.907     8.999     9.630     9.967    10.123    10.329  -999.250  -999.250   -33.006   -23.969  -999.250  -999.250
 5924.500     8.669   108.019     7.196     8.112     8.604     8.862     9.029     9.223  -999.250  -999.250   -32.523   -10.414  -999.250  -999.250
 5925.000     8.682   108.943     6.828     7.511     7.834     8.026     8.202     8.389  -999.250  -999.250   -32.567    -0.339  -999.250  -999.250
 5925.500     8.692   110.816     6.771     7.218     7.382     7.539     7.718     7.904  -999.250  -999.250   -31.962    -5.398  -999.250  -999.250
 5926.000     8.696   117.560     7.410     7.629     7.667     7.813     8.017     8.222  -999.250  -999.250   -31.518   -16.948  -999.250  -999.250
 5926.500     8.685   125.306     9.052     9.018     8.958     9.136     9.392     9.645  -999.250  -999.250   -32.520   -19.391  -999.250  -999.250
 5927.000     8.661   128.579    11.094    10.771    10.654    10.944    11.279    11.597  -999.250  -999.250   -33.568   -14.159  -999.250  -999.250
 5927.500     8.649   124.722    11.933    11.590    11.542    11.936    12.287    12.644  -999.250  -999.250   -33.418   -13.453  -999.250  -999.250
 5928.000     8.664   117.230    11.363    11.441    11.555    11.971    12.321    12.688  -999.250  -999.250   -33.320   -16.840  -999.250  -999.250
 5928.500     8.691   113.122    10.348    11.006    11.294    11.735    12.098    12.463  -999.250  -999.250   -33.888    -9.035  -999.250  -999.250
 5929.000     8.710   116.197     8.983    10.092    10.503    10.948    11.275    11.616  -999.250  -999.250   -34.200    11.942  -999.250  -999.250
 5929.500     8.717   121.471     7.470     8.664     9.090     9.483     9.754    10.047  -999.250  -999.250   -34.081    17.008  -999.250  -999.250
 5930.000     8.721   120.852     6.538     7.582     7.956     8.286     8.513     8.767  -999.250  -999.250   -34.404   -12.086  -999.250  -999.250
 5930.500     8.721   109.984     6.410     7.226     7.531     7.822     8.031     8.267  -999.250  -999.250   -36.420   -37.669  -999.250  -999.250
 5931.000     8.713    91.319     6.783     7.280     7.502     7.770     7.976     8.207  -999.250  -999.250   -41.424   -13.201  -999.250  -999.250
 5931.500     8.704    71.190     7.203     7.291     7.424     7.682     7.878     8.102  -999.250  -999.250   -48.912    33.852  -999.250  -999.250
 5932.000     8.702    55.855     7.580     7.258     7.324     7.581     7.777     7.996  -999.250  -999.250   -56.114    39.333  -999.250  -999.250
 5932.500     8.705    48.487     7.864     7.249     7.279     7.546     7.757     7.979  -999.250  -999.250   -61.000    -2.632  -999.250  -999.250
 5933.000     8.707    46.644     7.703     6.998     7.023     7.289     7.493     7.708  -999.250  -999.250   -63.655   -43.931  -999.250  -999.250
 5933.500     8.710    45.848     7.089     6.484     6.517     6.764     6.940     7.126  -999.250  -999.250   -64.755   -31.875  -999.250  -999.250
 5934.000     8.710    46.837     6.610     6.124     6.171     6.406     6.560     6.732  -999.250  -999.250   -64.281    50.998  -999.250  -999.250
 5934.500     8.702    50.836     6.655     6.221     6.283     6.532     6.681     6.858  -999.250  -999.250   -62.555   153.994  -999.250  -999.250
 5935.000     8.684    55.352     7.229     6.815     6.903     7.193     7.355     7.545  -999.250  -999.250   -59.791   194.419  -999.250  -999.250
 5935.500     8.672    59.009     8.174     7.865     8.021     8.371     8.544     8.760  -999.250  -999.250   -56.022   143.702  -999.250  -999.250
 5936.000     8.686    61.595     9.393     9.612     9.919    10.313    10.519    10.778  -999.250  -999.250   -52.380    50.324  -999.250  -999.250
 5936.500     8.724    61.853    10.147    11.528    12.130    12.562    12.786    13.090  -999.250  -999.250   -50.067   -21.378  -999.250  -999.250
 5937.000     8.774    61.601     8.687    11.139    11.991    12.389    12.587    12.873  -999.250  -999.250   -47.751   -48.077  -999.250  -999.250
 5937.500     8.901    65.711     6.350     8.845     9.730    10.008    10.150    10.369  -999.250  -999.250   -43.929   -50.524  -999.250  -999.250
 5938.000     9.087    76.577     5.332     7.594     8.419     8.607     8.715     8.891  -999.250  -999.250   -39.632   -50.119  -999.250  -999.250
 5938.500     9.077    91.292     5.454     7.603     8.376     8.518     8.614     8.777  -999.250  -999.250   -36.219   -42.654  -999.250  -999.250
 5939.000     8.826   103.381     5.872     7.812     8.463     8.568     8.653     8.805  -999.250  -999.250   -33.758   -21.396  -999.250  -999.250
 5939.500     8.612   109.379     5.780     7.290     7.755     7.827     7.895     8.024  -999.250  -999.250   -32.095    -0.099  -999.250  -999.250
