~Version Information
 VERS.                2.00:   CWLS log ASCII Standard -VERSION 2.00
 WRAP.                  NO:   One line per frame
~Well Information Block
#MNEM.UNIT                 Well Data                         Data Description
#---------  -----------------------------------------  -------------------------------
 STRT.FT                                      0.0000:  Starting Depth
 STOP.FT                                   9827.0000:  Ending Depth
 STEP.FT                                      0.5000:  Level Spacing
 NULL.                                     -999.2500:  Absent Value
 COMP.      ANADARKO PETROLEUM CORPORATION          :  Company
 WELL.      ECHO SPRINGS STATE 5-16                 :  Well
 FLD .      ECHO SPRINGS                            :  Field
 LOC .      2640' FNL & 2640' FEL                   :  Location
 CNTY.      CARBON                                  :  County
 STAT.      WYOMING                                 :  State
 SRVC.      Baker Atlas                             :  Service Company
 DATE.      25-Jul-2003                             :  Log Date
 API .      49-007-22364                            :  API Number
 UWI .      490072236400                            :  Unique Well ID
~Curve Information Block
#MNEM.UNIT           API Codes    Curve Description
#---------        -------------   -------------------------------
 DEPT    .FT      99 995 99  1:   Depth
 CAL     .IN      70 280 99  1:   Caliper
 GR      .GAPI    30 310  1  1:   Gamma Ray counts
 M2R1    .OHMM    99 995 99  1:   Vert resolution matched (2 ft) res - DOI 10 inch
 M2R2    .OHMM    99 995 99  1:   Vert resolution matched (2 ft) res - DOI 20 inch
 M2R3    .OHMM    99 995 99  1:   Vert resolution matched (2 ft) res - DOI 30 inch
 M2R6    .OHMM    99 995 99  1:   Vert resolution matched (2 ft) res - DOI 60 inch
 M2R9    .OHMM    99 995 99  1:   Vert resolution matched (2 ft) res - DOI 90 inch
 M2RX    .OHMM    99 995 99  1:   Vert resolution matched (2 ft) res - DOI 120 inch
 PE      .B/E     45 358  1  1:   Photo Electric Cross Section
 PORZ    .PU      45 890 99  1:   Porosity from ZDEN or ZDNC
 SP      .MV       1  10  1  1:   Spontaneous Potential
 TEN     .LBF     99 635 99  1:   Differential Tension
 ZDEN    .G/C3    45 350  1  1:   ZDL Bulk Density
 ZCOR    .G/C3    45 356 99  1:   ZDL Correction
~Parameter Information Block
#MNEM.UNIT             Parameter Value                     Parameter Description
#---------  -----------------------------------------  -------------------------------
 HIDE.      HIGH DEFINITION INDUCTION LOG           :  Header Identifer
 HID1.      Gamma Ray / Caliper                     :  Header Identifer
 CLAB.      COUNTY                                  :  County Label (Comments)
 SLAB.      STATE                                   :  State Label (Comments)
 FILE.      12521                                   :  File Number
 SECT.      16                                      :  Section
 TOWN.      19 N                                    :  Township
 RANG.      93 W                                    :  Range
 OS1 .      ZDL/CN                                  :  Other Services Line 1
 PDAT.      G.L.                                    :  Permanent Datum
 EPD .FT    6760                                    :  Elevation Of Perm. Datum
 LMF .      K.B.                                    :  Log Measured From
 APD .FT    18                                      :  Above Permanent Datum
 DMF .      K.B.                                    :  Drilling Measured From
 EKB .FT    6778                                    :  Elevation Of Kelly Bushing
 EDF .FT    6777                                    :  Elevation Of Derrick Floor
 EGL .FT    6760                                    :  Elevation Of Ground Level
 RUN .      1                                       :  Run Number
 TRIP.      1                                       :  Trip Number
 SON .      421546                                  :  Service Order Number
 TDD .FT    9820                                    :  Total Depth - Driller
 TDL .FT    9815                                    :  Total Depth - Logger
 BLI .FT    9815                                    :  Bottom Log Interval
 TLI .FT    0                                       :  Top Log Interval
 CSIZ.IN    9.625                                   :  Casing Size
 CBDR.FT    1501                                    :  N/A
 CBLO.FT    1515                                    :  N/A
 BS  .IN    7.875                                   :  Bit Size
 DFT .      GEL/CHEM                                :  Drilling Fluid Type
 DFD .LB/G  10.4                                    :  Drilling Fluid Density
 DFV .S     41                                      :  Drilling Fluid Viscosity
 DFPH.      9.0                                     :  Drilling Fluid Ph
 DFL .C3    10.0                                    :  Drilling Fluid Loss
 MSS .      TANK                                    :  Mud Sample Source
 RMS .OHMM  1.52                                    :  Resistivity Of Mud Sample
 MST .DEGF  87                                      :  Mud Sample Temperature
 RMFS.OHMM  1.14                                    :  Resistivity Of Mud Filtrate Sample
 MFST.DEGF  83                                      :  Mud Filtrate Sample Temperature
 RMCS.OHMM  1.82                                    :  Resistivity Of Mud Cake Sample
 MCST.DEGF  87                                      :  Mud Cake Sample Temperature
 MFSS.      MEAS.                                   :  Mud Filtrate Sample Source
 MCSS.      CALC.                                   :  Mud Cake Sample Source
 RMB .OHMM  .65                                     :  Mud Resistivity At Bht
 BHT .DEGF  203                                     :  Bottom Hole Temperature
 TSC .      7 HOURS                                 :  Time Since Circulation
 MRT .DEGF  203                                     :  Maximum Recorded Temperature
 LUN .      HL-6559                                 :  Logging Unit Number
 LUL .      RK. SPRINGS                             :  Logging Unit Location
 ENGI.      WARRINGTON                              :  Engineer's Name
 WITN.      ODUM / BERGMAN                          :  Witness' Name
 TSTR.      HDIL/                                   :  N/A
 TSTG.      NA                                      :  N/A
 STUS.      FINAL                                   :  N/A
 LCNM.      BAKER ATLAS                             :  N/A
 LCC .      150                                     :  Logging Company Code
 NATI.      CARBON                                  :  Nation
 OPMD.      OH.WIRE                                 :  N/A
 PANA.      WARRINGTON                              :  N/A
 PCON.      BAKER ATLAS                             :  N/A
~Other information
 CEMENT VOLUME BASED ON 4.5" CASING                                              
 CALIPER VERIFIED IN CASING                                                      
 THANKS FOR USING BAKER ATLAS                                                    
 CREW:  BRAMWELL / MYERS                                                         
 RIG:  CYCLONE #14                                                               
#  Curve Data
~A DEPT      CAL       GR        M2R1      M2R2      M2R3      M2R6      M2R9      M2RX      PE        PORZ      SP        TEN       ZDEN      ZCOR     
# ...
 6480.000     9.611    97.725     6.919     7.594     7.878     7.954     7.959     7.881     3.373     3.340   -43.117   -32.131     2.595     0.109
 6480.500     9.617    91.964     8.067     8.790     9.133     9.242     9.254     9.174     3.446     2.135   -42.977   -40.474     2.615     0.102
 6481.000     9.620    91.373     8.177     8.823     9.181     9.305     9.324     9.253     4.183     1.308   -42.714   -51.062     2.628     0.092
 6481.500     9.622    95.570     6.959     7.455     7.770     7.882     7.906     7.855     5.076     1.608   -42.507   -55.040     2.623     0.075
 6482.000     9.626   100.618     5.684     6.049     6.304     6.395     6.420     6.386     5.123     3.046   -42.762   -49.791     2.600     0.074
 6482.500     9.629   103.183     4.998     5.306     5.524     5.602     5.628     5.605     4.618     4.469   -43.070   -48.238     2.576     0.095
 6483.000     9.624   102.416     4.824     5.134     5.335     5.410     5.439     5.425     4.172     5.052   -43.057   -58.875     2.567     0.103
 6483.500     9.619   101.267     4.925     5.277     5.479     5.557     5.590     5.583     4.020     5.056   -43.771   -77.020     2.567     0.084
 6484.000     9.615   103.304     4.943     5.341     5.546     5.633     5.667     5.670     4.269     4.581   -46.093   -88.591     2.574     0.064
 6484.500     9.609   106.499     4.750     5.164     5.372     5.462     5.493     5.508     4.593     4.171   -48.689   -84.311     2.581     0.051
 6485.000     9.604   107.046     4.555     4.973     5.183     5.279     5.305     5.332     4.687     4.473   -50.033   -66.256     2.576     0.034
 6485.500     9.606   104.788     4.495     4.919     5.128     5.234     5.252     5.295     4.840     7.032   -50.060   -43.004     2.534     0.008
 6486.000     9.611   103.530     4.519     4.941     5.141     5.258     5.266     5.329     5.447    12.458   -48.989   -24.532     2.444    -0.010
 6486.500     9.610   102.409     4.696     5.095     5.280     5.412     5.409     5.496     5.050    26.003   -47.165   -21.525     2.221    -0.036
 6487.000     9.603    95.420     5.463     5.814     5.990     6.152     6.134     6.263     4.457    49.224   -45.793   -30.207     1.838    -0.079
 6487.500     9.598    79.768     7.782     8.052     8.240     8.483     8.438     8.661     4.531    67.885   -45.903   -38.836     1.530    -0.082
 6488.000     9.601    63.430    13.174    13.239    13.486    13.913    13.818    14.271     4.742    73.246   -47.418   -43.514     1.441    -0.041
 6488.500     9.604    59.146    18.797    18.723    19.106    19.752    19.592    20.367     4.782    65.125   -49.248   -41.744     1.575     0.006
 6489.000     9.603    68.955    17.043    17.813    18.400    19.115    18.955    19.838     4.401    46.794   -50.484   -35.326     1.878     0.037
 6489.500     9.601    80.122    12.781    14.241    15.033    15.712    15.595    16.432     3.552    25.113   -51.138   -25.966     2.236     0.061
 6490.000     9.597    80.491    11.024    12.968    14.009    14.712    14.635    15.519     3.070    12.265   -51.626     4.036     2.448     0.076
 6490.500     9.585    75.057    10.992    13.391    14.741    15.544    15.527    16.562     3.079    18.647   -51.854    55.881     2.342     0.041
 6491.000     9.576    73.383    12.000    14.887    16.533    17.488    17.562    18.834     3.566    42.509   -51.752    88.669     1.949    -0.022
 6491.500     9.584    73.279    14.056    17.633    19.577    20.749    20.968    22.593     4.090    55.467   -51.365    76.584     1.735     0.016
 6492.000     9.595    69.224    17.836    22.682    25.059    26.562    27.024    29.219     4.404    53.712   -50.871    45.904     1.764     0.076
 6492.500     9.597    68.717    22.804    29.352    32.251    34.115    34.925    37.835     4.344    41.021   -50.686    21.360     1.973     0.091
 6493.000     9.592    81.167    24.852    32.012    35.107    37.138    38.224    41.420     3.707    21.556   -51.090     1.155     2.294     0.093
 6493.500     9.590   100.323    22.113    28.105    30.884    32.795    33.879    36.656     3.398     7.407   -51.389   -21.222     2.528     0.093
 6494.000     9.594   113.733    18.720    23.364    25.712    27.377    28.321    30.541     3.664     1.203   -51.116   -37.694     2.630     0.089
 6494.500     9.598   118.788    16.376    20.243    22.259    23.694    24.492    26.291     3.663    -1.171   -50.892   -35.077     2.669     0.077
 6495.000     9.592   120.042    14.551    17.926    19.648    20.870    21.521    22.975     3.340    -1.591   -51.182   -17.467     2.676     0.071
 6495.500     9.583   119.631    13.451    16.486    17.973    19.024    19.550    20.750     3.061    -1.507   -51.778   -13.708     2.675     0.078
 6496.000     9.580   118.509    13.426    16.285    17.631    18.583    19.024    20.074     2.815    -1.022   -52.982   -40.156     2.667     0.082
 6496.500     9.584   118.002    14.266    17.064    18.340    19.240    19.623    20.593     2.577     0.077   -53.990   -72.777     2.649     0.075
 6497.000     9.588   118.325    15.200    17.922    19.154    20.012    20.341    21.243     2.444     1.000   -53.717   -82.328     2.634     0.069
 6497.500     9.589   116.946    15.690    18.283    19.476    20.279    20.555    21.377     2.477     1.501   -52.983   -70.948     2.625     0.068
 6498.000     9.587   113.675    16.011    18.540    19.738    20.494    20.731    21.489     2.685     2.077   -53.424   -60.506     2.616     0.067
 6498.500     9.590   112.326    16.312    18.859    20.107    20.825    21.042    21.759     3.037     2.409   -54.516   -59.335     2.610     0.069
 6499.000     9.597   115.031    16.511    19.069    20.371    21.056    21.267    21.956     3.427     1.936   -55.248   -62.519     2.618     0.075
 6499.500     9.600   118.391    17.080    19.654    21.021    21.685    21.908    22.601     3.578     1.383   -55.883   -63.947     2.627     0.073
 6500.000     9.596   119.614    18.169    20.804    22.242    22.899    23.156    23.883     3.310     1.834   -56.315   -52.188     2.620     0.065
 6500.500     9.593   121.606    18.684    21.360    22.809    23.445    23.737    24.488     2.943     3.231   -56.025   -26.294     2.597     0.060
 6501.000     9.593   126.233    17.793    20.474    21.846    22.439    22.748    23.477     2.873     4.171   -55.746   -14.808     2.581     0.060
 6501.500     9.598   130.781    16.160    18.856    20.120    20.655    20.964    21.647     3.006     3.831   -56.457   -30.163     2.587     0.063
 6502.000     9.604   133.069    14.590    17.284    18.448    18.921    19.221    19.857     3.122     2.682   -57.251   -37.984     2.606     0.065
 6502.500     9.605   133.926    13.434    16.052    17.118    17.531    17.816    18.413     3.275     1.383   -57.352   -10.578     2.627     0.071
 6503.000     9.602   130.580    13.064    15.568    16.548    16.908    17.181    17.762     3.460     1.006   -57.621    27.962     2.633     0.069
 6503.500     9.594   119.713    13.576    15.954    16.854    17.168    17.433    18.024     3.386     2.095   -59.789    46.606     2.615     0.056
 6504.000     9.589   105.978    14.370    16.516    17.298    17.560    17.810    18.412     3.316     3.626   -64.270    46.525     2.590     0.051
 6504.500     9.592    96.293    14.771    16.535    17.148    17.348    17.567    18.154     3.674     4.841   -68.940    41.845     2.570     0.062
 6505.000     9.593    89.501    15.012    16.384    16.823    16.961    17.141    17.706     4.184     6.455   -72.339    38.448     2.543     0.067
 6505.500     9.587    81.974    15.244    16.291    16.569    16.683    16.788    17.331     4.403     7.741   -75.979    38.029     2.522     0.064
 6506.000     9.587    76.316    14.982    15.742    15.864    15.968    15.986    16.492     4.509     7.055   -81.061    37.351     2.534     0.071
 6506.500     9.594    76.430    14.480    14.985    14.970    15.016    15.059    15.472     4.680     5.522   -85.824    28.057     2.559     0.079
