~Version Information
 VERS.                2.00:   CWLS log ASCII Standard -VERSION 2.00
 WRAP.                  NO:   One line per frame
~Well Information Block
#MNEM.UNIT                 Well Data                         Data Description
#---------  -----------------------------------------  -------------------------------
 STRT.FT                                      0.0000:  Starting Depth
 STOP.FT                                   9827.0000:  Ending Depth
 STEP.FT                                      0.5000:  Level Spacing
 NULL.                                     -999.2500:  Absent Value
 COMP.      ANADARKO PETROLEUM CORPORATION          :  Company
 WELL.      ECHO SPRINGS STATE 5-16                 :  Well
 FLD .      ECHO SPRINGS                            :  Field
 LOC .      2640' FNL & 2640' FEL                   :  Location
 CNTY.      CARBON                                  :  County
 STAT.      WYOMING                                 :  State
 SRVC.      Baker Atlas                             :  Service Company
 DATE.      25-Jul-2003                             :  Log Date
 API .      49-007-22364                            :  API Number
 UWI .      490072236400                            :  Unique Well ID
~Curve Information Block
#MNEM.UNIT           API Codes    Curve Description
#---------        -------------   -------------------------------
 DEPT    .FT      99 995 99  1:   Depth
 CAL     .IN      70 280 99  1:   Caliper
 GR      .GAPI    30 310  1  1:   Gamma Ray counts
 M2R1    .OHMM    99 995 99  1:   Vert resolution matched (2 ft) res - DOI 10 inch
 M2R2    .OHMM    99 995 99  1:   Vert resolution matched (2 ft) res - DOI 20 inch
 M2R3    .OHMM    99 995 99  1:   Vert resolution matched (2 ft) res - DOI 30 inch
 M2R6    .OHMM    99 995 99  1:   Vert resolution matched (2 ft) res - DOI 60 inch
 M2R9    .OHMM    99 995 99  1:   Vert resolution matched (2 ft) res - DOI 90 inch
 M2RX    .OHMM    99 995 99  1:   Vert resolution matched (2 ft) res - DOI 120 inch
 PE      .B/E     45 358  1  1:   Photo Electric Cross Section
 PORZ    .PU      45 890 99  1:   Porosity from ZDEN or ZDNC
 SP      .MV       1  10  1  1:   Spontaneous Potential
 TEN     .LBF     99 635 99  1:   Differential Tension
 ZDEN    .G/C3    45 350  1  1:   ZDL Bulk Density
 ZCOR    .G/C3    45 356 99  1:   ZDL Correction
~Parameter Information Block
#MNEM.UNIT             Parameter Value                     Parameter Description
#---------  -----------------------------------------  -------------------------------
 HIDE.      HIGH DEFINITION INDUCTION LOG           :  Header Identifer
 HID1.      Gamma Ray / Caliper                     :  Header Identifer
 CLAB.      COUNTY                                  :  County Label (Comments)
 SLAB.      STATE                                   :  State Label (Comments)
 FILE.      12521                                   :  File Number
 SECT.      16                                      :  Section
 TOWN.      19 N                                    :  Township
 RANG.      93 W                                    :  Range
 OS1 .      ZDL/CN                                  :  Other Services Line 1
 PDAT.      G.L.                                    :  Permanent Datum
 EPD .FT    6760                                    :  Elevation Of Perm. Datum
 LMF .      K.B.                                    :  Log Measured From
 APD .FT    18                                      :  Above Permanent Datum
 DMF .      K.B.                                    :  Drilling Measured From
 EKB .FT    6778                                    :  Elevation Of Kelly Bushing
 EDF .FT    6777                                    :  Elevation Of Derrick Floor
 EGL .FT    6760                                    :  Elevation Of Ground Level
 RUN .      1                                       :  Run Number
 TRIP.      1                                       :  Trip Number
 SON .      421546                                  :  Service Order Number
 TDD .FT    9820                                    :  Total Depth - Driller
 TDL .FT    9815                                    :  Total Depth - Logger
 BLI .FT    9815                                    :  Bottom Log Interval
 TLI .FT    0                                       :  Top Log Interval
 CSIZ.IN    9.625                                   :  Casing Size
 CBDR.FT    1501                                    :  N/A
 CBLO.FT    1515                                    :  N/A
 BS  .IN    7.875                                   :  Bit Size
 DFT .      GEL/CHEM                                :  Drilling Fluid Type
 DFD .LB/G  10.4                                    :  Drilling Fluid Density
 DFV .S     41                                      :  Drilling Fluid Viscosity
 DFPH.      9.0                                     :  Drilling Fluid Ph
 DFL .C3    10.0                                    :  Drilling Fluid Loss
 MSS .      TANK                                    :  Mud Sample Source
 RMS .OHMM  1.52                                    :  Resistivity Of Mud Sample
 MST .DEGF  87                                      :  Mud Sample Temperature
 RMFS.OHMM  1.14                                    :  Resistivity Of Mud Filtrate Sample
 MFST.DEGF  83                                      :  Mud Filtrate Sample Temperature
 RMCS.OHMM  1.82                                    :  Resistivity Of Mud Cake Sample
 MCST.DEGF  87                                      :  Mud Cake Sample Temperature
 MFSS.      MEAS.                                   :  Mud Filtrate Sample Source
 MCSS.      CALC.                                   :  Mud Cake Sample Source
 RMB .OHMM  .65                                     :  Mud Resistivity At Bht
 BHT .DEGF  203                                     :  Bottom Hole Temperature
 TSC .      7 HOURS                                 :  Time Since Circulation
 MRT .DEGF  203                                     :  Maximum Recorded Temperature
 LUN .      HL-6559                                 :  Logging Unit Number
 LUL .      RK. SPRINGS                             :  Logging Unit Location
 ENGI.      WARRINGTON                              :  Engineer's Name
 WITN.      ODUM / BERGMAN                          :  Witness' Name
 TSTR.      HDIL/                                   :  N/A
 TSTG.      NA                                      :  N/A
 STUS.      FINAL                                   :  N/A
 LCNM.      BAKER ATLAS                             :  N/A
 LCC .      150                                     :  Logging Company Code
 NATI.      CARBON                                  :  Nation
 OPMD.      OH.WIRE                                 :  N/A
 PANA.      WARRINGTON                              :  N/A
 PCON.      BAKER ATLAS                             :  N/A
~Other information
 CEMENT VOLUME BASED ON 4.5" CASING                                              
 CALIPER VERIFIED IN CASING                                                      
 THANKS FOR USING BAKER ATLAS                                                    
 CREW:  BRAMWELL / MYERS                                                         
 RIG:  CYCLONE #14                                                               
#  Curve Data
~A DEPT      CAL       GR        M2R1      M2R2      M2R3      M2R6      M2R9      M2RX      PE        PORZ      SP        TEN       ZDEN      ZCOR     
# ...
 7020.000     8.375    67.726    17.718    16.522    15.634    15.049    14.794    14.688     5.274     2.474   -82.111   -74.067     2.609     0.120
 7020.500     8.377    65.200    19.173    17.520    16.342    15.589    15.266    15.138     5.826     4.675   -85.724   -66.582     2.573     0.094
 7021.000     8.374    63.567    19.185    17.446    16.146    15.303    14.946    14.811     6.061     7.896   -89.725   -62.468     2.520     0.060
 7021.500     8.374    65.423    18.291    16.724    15.437    14.570    14.205    14.076     6.035     9.677   -92.722   -61.399     2.490     0.042
 7022.000     8.377    67.879    17.493    16.086    14.818    13.931    13.564    13.443     6.248     9.753   -94.177   -60.448     2.489     0.045
 7022.500     8.376    67.266    17.249    15.855    14.544    13.611    13.230    13.115     6.627     9.299   -94.803   -63.858     2.497     0.053
 7023.000     8.368    64.698    17.611    16.051    14.621    13.607    13.201    13.087     6.629     9.387   -95.010   -72.914     2.495     0.050
 7023.500     8.358    63.389    18.262    16.423    14.840    13.736    13.300    13.188     6.403     9.776   -94.666   -82.063     2.489     0.043
 7024.000     8.354    64.820    18.679    16.617    14.933    13.770    13.316    13.206     6.473    10.031   -94.039   -82.633     2.484     0.039
 7024.500     8.355    67.522    18.571    16.494    14.807    13.638    13.181    13.078     6.666    10.106   -93.387   -74.565     2.483     0.042
 7025.000     8.354    69.757    17.894    16.035    14.452    13.330    12.888    12.793     6.810     9.655   -92.747   -66.935     2.491     0.053
 7025.500     8.355    71.917    16.882    15.343    13.930    12.896    12.482    12.396     6.540     8.535   -92.168   -64.338     2.509     0.070
 7026.000     8.358    73.728    16.192    14.879    13.599    12.635    12.240    12.160     5.650     7.594   -91.670   -63.968     2.525     0.079
 7026.500     8.354    73.823    16.416    15.130    13.860    12.891    12.486    12.405     5.007     6.563   -91.233   -64.407     2.542     0.080
 7027.000     8.350    74.177    17.533    16.100    14.717    13.666    13.220    13.131     5.304     5.198   -90.969   -61.441     2.564     0.082
 7027.500     8.355    76.227    18.693    17.081    15.575    14.439    13.951    13.854     6.092     5.173   -91.099   -50.708     2.565     0.075
 7028.000     8.360    78.620    18.769    17.167    15.687    14.563    14.074    13.977     6.300     6.998   -91.324   -36.783     2.535     0.055
 7028.500     8.360    81.724    17.635    16.263    14.968    13.958    13.512    13.423     5.868     8.374   -91.163   -23.571     2.512     0.043
 7029.000     8.361    85.733    16.204    15.090    14.001    13.120    12.726    12.647     5.269     8.178   -90.642   -13.987     2.515     0.052
 7029.500     8.365    88.488    15.289    14.324    13.361    12.558    12.195    12.123     5.156     7.165   -89.901   -10.131     2.532     0.075
 7030.000     8.366    87.462    15.142    14.182    13.243    12.455    12.094    12.024     5.833     6.824   -89.141    -7.468     2.537     0.091
 7030.500     8.362    83.146    15.791    14.691    13.677    12.841    12.453    12.379     6.751     8.022   -88.956    -4.826     2.518     0.081
 7031.000     8.360    77.168    17.180    15.806    14.620    13.679    13.235    13.151     7.115     9.737   -89.401    -7.854     2.489     0.052
 7031.500     8.365    71.794    18.832    17.134    15.736    14.669    14.158    14.062     7.291    10.699   -89.811   -16.931     2.473     0.030
 7032.000     8.371    69.334    19.702    17.855    16.352    15.229    14.682    14.581     7.513    10.893   -89.794   -28.164     2.470     0.025
 7032.500     8.371    70.726    19.196    17.518    16.112    15.053    14.528    14.433     7.389    10.442   -89.385   -38.701     2.478     0.030
 7033.000     8.368    74.907    17.855    16.519    15.327    14.402    13.935    13.853     6.988     9.465   -88.793   -44.002     2.494     0.042
 7033.500     8.369    80.935    16.442    15.431    14.459    13.671    13.270    13.203     6.643     8.698   -88.411   -43.068     2.506     0.054
 7034.000     8.371    87.675    15.441    14.665    13.857    13.176    12.829    12.776     6.437     8.828   -87.659   -40.572     2.504     0.056
 7034.500     8.367    91.074    14.974    14.342    13.644    13.037    12.728    12.687     6.233     9.156   -85.788   -43.752     2.499     0.052
 7035.000     8.361    89.539    14.748    14.220    13.615    13.077    12.802    12.774     5.830     8.588   -83.191   -50.544     2.508     0.059
 7035.500     8.362    84.422    14.618    14.197    13.689    13.229    12.985    12.972     5.528     7.445   -80.788   -51.565     2.527     0.076
 7036.000     8.364    78.077    14.731    14.463    14.059    13.675    13.455    13.459     5.388     7.433   -78.899   -47.481     2.527     0.077
 7036.500     8.361    73.599    14.817    14.787    14.520    14.227    14.030    14.056     4.843     8.392   -77.491   -44.602     2.512     0.062
 7037.000     8.358    72.978    14.319    14.558    14.471    14.289    14.137    14.184     4.043     8.948   -76.037   -42.558     2.502     0.054
 7037.500     8.366    74.879    13.522    13.886    13.962    13.855    13.777    13.831     3.726     9.081   -74.292   -39.127     2.500     0.056
 7038.000     8.385    78.389    12.777    13.361    13.493    13.479    13.400    13.475     3.820     9.191   -72.593   -35.743     2.498     0.053
 7038.500     8.399    82.473    12.311    12.972    13.202    13.260    13.176    13.282     3.851     9.187   -70.732   -32.435     2.498     0.051
 7039.000     8.396    84.090    12.061    12.749    13.040    13.154    13.074    13.195     3.600     8.818   -68.034   -32.775     2.505     0.064
 7039.500     8.384    83.107    11.899    12.569    12.888    13.044    12.967    13.101     3.301     8.380   -65.001   -36.588     2.512     0.076
 7040.000     8.375    82.215    11.708    12.317    12.660    12.827    12.751    12.897     3.128     8.360   -62.748   -34.495     2.512     0.067
 7040.500     8.374    81.054    11.571    12.100    12.460    12.626    12.552    12.709     3.135     8.604   -61.487   -22.139     2.508     0.046
 7041.000     8.378    78.409    11.681    12.142    12.494    12.682    12.611    12.783     3.162     8.228   -60.827    -6.093     2.514     0.038
 7041.500     8.385    76.073    12.142    12.565    12.912    13.129    13.063    13.257     3.110     7.223   -60.663    -0.231     2.531     0.045
 7042.000     8.384    75.906    12.787    13.209    13.556    13.809    13.750    13.973     3.121     6.637   -60.924    -7.914     2.540     0.052
 7042.500     8.376    77.822    13.211    13.662    14.014    14.302    14.255    14.507     3.215     7.163   -61.225   -18.272     2.532     0.051
 7043.000     8.371    81.126    13.222    13.736    14.102    14.419    14.391    14.667     3.261     8.049   -61.476   -20.082     2.517     0.043
 7043.500     8.372    84.192    12.949    13.561    13.958    14.300    14.293    14.591     3.209     8.230   -61.604   -16.780     2.514     0.037
 7044.000     8.372    86.348    12.571    13.307    13.750    14.115    14.132    14.449     3.164     7.606   -61.482   -14.414     2.525     0.039
 7044.500     8.368    87.013    12.258    13.132    13.631    14.022    14.062    14.399     3.091     6.894   -61.523    -9.828     2.536     0.051
 7045.000     8.359    85.541    12.090    13.101    13.660    14.080    14.143    14.504     2.983     6.493   -62.181    -3.411     2.543     0.069
 7045.500     8.346    83.450    11.970    13.093    13.709    14.159    14.244    14.626     2.928     6.422   -62.892    -4.824     2.544     0.077
 7046.000     8.339    83.282    11.795    12.984    13.646    14.125    14.226    14.625     2.960     6.393   -62.684   -11.991     2.545     0.069
 7046.500     8.347    85.956    11.535    12.750    13.443    13.948    14.058    14.467     2.965     6.337   -61.507   -13.819     2.545     0.052
