~Version Information
 VERS.                2.00:   CWLS log ASCII Standard -VERSION 2.00
 WRAP.                  NO:   One line per frame
~Well Information Block
#MNEM.UNIT                 Well Data                         Data Description
#---------  -----------------------------------------  -------------------------------
 STRT.FT                                      0.0000:  Starting Depth
 STOP.FT                                   9827.0000:  Ending Depth
 STEP.FT                                      0.5000:  Level Spacing
 NULL.                                     -999.2500:  Absent Value
 COMP.      ANADARKO PETROLEUM CORPORATION          :  Company
 WELL.      ECHO SPRINGS STATE 5-16                 :  Well
 FLD .      ECHO SPRINGS                            :  Field
 LOC .      2640' FNL & 2640' FEL                   :  Location
 CNTY.      CARBON                                  :  County
 STAT.      WYOMING                                 :  State
 SRVC.      Baker Atlas                             :  Service Company
 DATE.      25-Jul-2003                             :  Log Date
 API .      49-007-22364                            :  API Number
 UWI .      490072236400                            :  Unique Well ID
~Curve Information Block
#MNEM.UNIT           API Codes    Curve Description
#---------        -------------   -------------------------------
 DEPT    .FT      99 995 99  1:   Depth
 CAL     .IN      70 280 99  1:   Caliper
 GR      .GAPI    30 310  1  1:   Gamma Ray counts
 M2R1    .OHMM    99 995 99  1:   Vert resolution matched (2 ft) res - DOI 10 inch
 M2R2    .OHMM    99 995 99  1:   Vert resolution matched (2 ft) res - DOI 20 inch
 M2R3    .OHMM    99 995 99  1:   Vert resolution matched (2 ft) res - DOI 30 inch
 M2R6    .OHMM    99 995 99  1:   Vert resolution matched (2 ft) res - DOI 60 inch
 M2R9    .OHMM    99 995 99  1:   Vert resolution matched (2 ft) res - DOI 90 inch
 M2RX    .OHMM    99 995 99  1:   Vert resolution matched (2 ft) res - DOI 120 inch
 PE      .B/E     45 358  1  1:   Photo Electric Cross Section
 PORZ    .PU      45 890 99  1:   Porosity from ZDEN or ZDNC
 SP      .MV       1  10  1  1:   Spontaneous Potential
 TEN     .LBF     99 635 99  1:   Differential Tension
 ZDEN    .G/C3    45 350  1  1:   ZDL Bulk Density
 ZCOR    .G/C3    45 356 99  1:   ZDL Correction
~Parameter Information Block
#MNEM.UNIT             Parameter Value                     Parameter Description
#---------  -----------------------------------------  -------------------------------
 HIDE.      HIGH DEFINITION INDUCTION LOG           :  Header Identifer
 HID1.      Gamma Ray / Caliper                     :  Header Identifer
 CLAB.      COUNTY                                  :  County Label (Comments)
 SLAB.      STATE                                   :  State Label (Comments)
 FILE.      12521                                   :  File Number
 SECT.      16                                      :  Section
 TOWN.      19 N                                    :  Township
 RANG.      93 W                                    :  Range
 OS1 .      ZDL/CN                                  :  Other Services Line 1
 PDAT.      G.L.                                    :  Permanent Datum
 EPD .FT    6760                                    :  Elevation Of Perm. Datum
 LMF .      K.B.                                    :  Log Measured From
 APD .FT    18                                      :  Above Permanent Datum
 DMF .      K.B.                                    :  Drilling Measured From
 EKB .FT    6778                                    :  Elevation Of Kelly Bushing
 EDF .FT    6777                                    :  Elevation Of Derrick Floor
 EGL .FT    6760                                    :  Elevation Of Ground Level
 RUN .      1                                       :  Run Number
 TRIP.      1                                       :  Trip Number
 SON .      421546                                  :  Service Order Number
 TDD .FT    9820                                    :  Total Depth - Driller
 TDL .FT    9815                                    :  Total Depth - Logger
 BLI .FT    9815                                    :  Bottom Log Interval
 TLI .FT    0                                       :  Top Log Interval
 CSIZ.IN    9.625                                   :  Casing Size
 CBDR.FT    1501                                    :  N/A
 CBLO.FT    1515                                    :  N/A
 BS  .IN    7.875                                   :  Bit Size
 DFT .      GEL/CHEM                                :  Drilling Fluid Type
 DFD .LB/G  10.4                                    :  Drilling Fluid Density
 DFV .S     41                                      :  Drilling Fluid Viscosity
 DFPH.      9.0                                     :  Drilling Fluid Ph
 DFL .C3    10.0                                    :  Drilling Fluid Loss
 MSS .      TANK                                    :  Mud Sample Source
 RMS .OHMM  1.52                                    :  Resistivity Of Mud Sample
 MST .DEGF  87                                      :  Mud Sample Temperature
 RMFS.OHMM  1.14                                    :  Resistivity Of Mud Filtrate Sample
 MFST.DEGF  83                                      :  Mud Filtrate Sample Temperature
 RMCS.OHMM  1.82                                    :  Resistivity Of Mud Cake Sample
 MCST.DEGF  87                                      :  Mud Cake Sample Temperature
 MFSS.      MEAS.                                   :  Mud Filtrate Sample Source
 MCSS.      CALC.                                   :  Mud Cake Sample Source
 RMB .OHMM  .65                                     :  Mud Resistivity At Bht
 BHT .DEGF  203                                     :  Bottom Hole Temperature
 TSC .      7 HOURS                                 :  Time Since Circulation
 MRT .DEGF  203                                     :  Maximum Recorded Temperature
 LUN .      HL-6559                                 :  Logging Unit Number
 LUL .      RK. SPRINGS                             :  Logging Unit Location
 ENGI.      WARRINGTON                              :  Engineer's Name
 WITN.      ODUM / BERGMAN                          :  Witness' Name
 TSTR.      HDIL/                                   :  N/A
 TSTG.      NA                                      :  N/A
 STUS.      FINAL                                   :  N/A
 LCNM.      BAKER ATLAS                             :  N/A
 LCC .      150                                     :  Logging Company Code
 NATI.      CARBON                                  :  Nation
 OPMD.      OH.WIRE                                 :  N/A
 PANA.      WARRINGTON                              :  N/A
 PCON.      BAKER ATLAS                             :  N/A
~Other information
 CEMENT VOLUME BASED ON 4.5" CASING                                              
 CALIPER VERIFIED IN CASING                                                      
 THANKS FOR USING BAKER ATLAS                                                    
 CREW:  BRAMWELL / MYERS                                                         
 RIG:  CYCLONE #14                                                               
#  Curve Data
~A DEPT      CAL       GR        M2R1      M2R2      M2R3      M2R6      M2R9      M2RX      PE        PORZ      SP        TEN       ZDEN      ZCOR     
# ...
 5373.000     8.222    42.511    19.409    20.955    21.205    20.952    20.672    20.327  -999.250  -999.250   -52.593  -112.615  -999.250  -999.250
 5373.500     8.223    40.932    19.772    21.374    21.736    21.514    21.192    20.853  -999.250  -999.250   -52.280  -118.161  -999.250  -999.250
 5374.000     8.221    37.102    19.768    21.514    22.057    21.875    21.553    21.191  -999.250  -999.250   -51.995  -128.758  -999.250  -999.250
 5374.500     8.214    33.697    19.361    21.535    22.147    22.003    21.683    21.313  -999.250  -999.250   -51.944  -131.339  -999.250  -999.250
 5375.000     8.208    33.456    18.842    21.556    22.287    22.165    21.847    21.477  -999.250  -999.250   -52.192  -124.720  -999.250  -999.250
 5375.500     8.207    35.127    17.755    20.817    21.725    21.604    21.299    20.937  -999.250  -999.250   -52.242  -117.704  -999.250  -999.250
 5376.000     8.215    35.574    15.505    18.442    19.361    19.228    18.960    18.617  -999.250  -999.250   -51.895  -112.243  -999.250  -999.250
 5376.500     8.231    35.283    13.677    16.241    17.062    16.905    16.673    16.374  -999.250  -999.250   -51.659  -111.424  -999.250  -999.250
 5377.000     8.254    36.284    13.843    16.221    16.952    16.747    16.523    16.245  -999.250  -999.250   -51.793  -122.104  -999.250  -999.250
 5377.500     8.271    37.747    15.916    18.277    18.993    18.706    18.463    18.173  -999.250  -999.250   -51.962  -138.557  -999.250  -999.250
 5378.000     8.279    37.166    18.021    20.269    20.990    20.613    20.353    20.050  -999.250  -999.250   -52.087  -142.628  -999.250  -999.250
 5378.500     8.285    35.623    18.476    20.552    21.102    20.669    20.410    20.106  -999.250  -999.250   -52.221  -132.467  -999.250  -999.250
 5379.000     8.296    36.191    18.177    20.098    20.522    20.057    19.810    19.509  -999.250  -999.250   -52.468  -122.569  -999.250  -999.250
 5379.500     8.306    38.839    18.322    20.277    20.663    20.162    19.930    19.608  -999.250  -999.250   -52.897  -120.691  -999.250  -999.250
 5380.000     8.316    40.298    18.840    20.998    21.409    20.864    20.615    20.282  -999.250  -999.250   -53.286  -124.703  -999.250  -999.250
 5380.500     8.337    38.645    18.950    21.289    21.730    21.159    20.886    20.551  -999.250  -999.250   -53.345  -129.385  -999.250  -999.250
 5381.000     8.376    36.649    18.225    20.545    20.982    20.415    20.139    19.807  -999.250  -999.250   -53.147  -130.662  -999.250  -999.250
 5381.500     8.421    37.552    17.312    19.478    19.879    19.330    19.065    18.730  -999.250  -999.250   -53.001  -128.154  -999.250  -999.250
 5382.000     8.454    40.377    17.036    19.105    19.468    18.918    18.661    18.307  -999.250  -999.250   -53.074  -124.417  -999.250  -999.250
 5382.500     8.467    41.092    17.382    19.473    19.808    19.235    18.976    18.588  -999.250  -999.250   -53.316  -120.413  -999.250  -999.250
 5383.000     8.472    38.422    17.604    19.774    20.084    19.488    19.222    18.805  -999.250  -999.250   -53.489  -118.841  -999.250  -999.250
 5383.500     8.475    35.914    17.194    19.425    19.714    19.113    18.841    18.417  -999.250  -999.250   -53.390  -120.682  -999.250  -999.250
 5384.000     8.475    35.342    16.588    18.875    19.155    18.554    18.277    17.858  -999.250  -999.250   -53.147  -124.130  -999.250  -999.250
 5384.500     8.471    35.265    16.350    18.706    18.990    18.378    18.095    17.674  -999.250  -999.250   -52.987  -129.773  -999.250  -999.250
 5385.000     8.473    34.800    16.490    18.865    19.155    18.523    18.242    17.806  -999.250  -999.250   -52.861  -137.535  -999.250  -999.250
 5385.500     8.486    35.329    16.765    19.039    19.322    18.677    18.412    17.953  -999.250  -999.250   -52.553  -141.073  -999.250  -999.250
 5386.000     8.501    36.684    17.056    19.142    19.409    18.761    18.521    18.040  -999.250  -999.250   -52.143  -139.314  -999.250  -999.250
 5386.500     8.514    37.387    17.304    19.207    19.459    18.821    18.602    18.107  -999.250  -999.250   -51.909  -132.151  -999.250  -999.250
 5387.000     8.529    36.489    17.284    19.049    19.302    18.688    18.481    17.992  -999.250  -999.250   -51.925  -115.517  -999.250  -999.250
 5387.500     8.552    35.677    16.931    18.582    18.853    18.278    18.075    17.613  -999.250  -999.250   -52.014   -96.891  -999.250  -999.250
 5388.000     8.580    36.251    16.598    18.141    18.447    17.915    17.712    17.282  -999.250  -999.250   -51.988   -95.850  -999.250  -999.250
 5388.500     8.600    37.322    16.480    17.925    18.281    17.786    17.581    17.184  -999.250  -999.250   -51.853  -116.593  -999.250  -999.250
 5389.000     8.606    37.751    16.259    17.640    18.058    17.605    17.393    17.039  -999.250  -999.250   -51.794  -145.067  -999.250  -999.250
 5389.500     8.608    37.366    15.721    17.138    17.632    17.233    17.049    16.712  -999.250  -999.250   -51.894  -163.963  -999.250  -999.250
 5390.000     8.614    36.311    15.162    16.787    17.390    17.053    16.901    16.575  -999.250  -999.250   -51.921  -162.655  -999.250  -999.250
 5390.500     8.628    36.193    14.850    16.997    17.624    17.357    17.245    16.933  -999.250  -999.250   -51.633  -143.420  -999.250  -999.250
 5391.000     8.643    38.304    14.629    17.247    18.084    17.903    17.843    17.498  -999.250  -999.250   -51.033  -118.624  -999.250  -999.250
 5391.500     8.657    41.779    14.326    17.378    18.435    18.352    18.355    18.036  -999.250  -999.250   -50.185  -105.176  -999.250  -999.250
 5392.000     8.671    50.703    13.743    17.035    18.253    18.266    18.326    18.058  -999.250  -999.250   -48.901  -110.689  -999.250  -999.250
 5392.500     8.694    70.209    11.914    14.912    16.106    16.188    16.290    16.099  -999.250  -999.250   -46.586  -122.524  -999.250  -999.250
 5393.000     8.753    92.819     8.944    11.128    12.079    12.192    12.303    12.182  -999.250  -999.250   -42.805  -125.882  -999.250  -999.250
 5393.500     8.895   104.127     6.703     8.171     8.874     8.995     9.101     9.026  -999.250  -999.250   -38.596  -120.378  -999.250  -999.250
 5394.000     9.101   104.671     5.921     7.048     7.639     7.785     7.895     7.842  -999.250  -999.250   -35.716  -116.296  -999.250  -999.250
 5394.500     9.225   103.430     6.167     7.186     7.771     7.970     8.099     8.056  -999.250  -999.250   -34.522  -117.224  -999.250  -999.250
 5395.000     9.295   102.584     6.927     7.999     8.678     8.964     9.127     9.087  -999.250  -999.250   -34.032  -122.296  -999.250  -999.250
 5395.500     9.751    99.321     7.652     8.967     9.859    10.265    10.467    10.429  -999.250  -999.250   -33.601  -130.317  -999.250  -999.250
 5396.000    10.831    93.097     8.129    10.024    11.276    11.850    12.098    12.058  -999.250  -999.250   -33.116  -142.181  -999.250  -999.250
 5396.500    12.034    87.111     7.801    10.421    12.054    12.801    13.077    13.036  -999.250  -999.250   -32.571  -152.904  -999.250  -999.250
 5397.000    12.760    84.462     6.203     8.916    10.630    11.355    11.601    11.565  -999.250  -999.250   -31.976  -155.826  -999.250  -999.250
 5397.500    13.172    83.312     4.462     6.606     8.034     8.606     8.790     8.762  -999.250  -999.250   -31.327  -149.701  -999.250  -999.250
 5398.000    13.607    82.403     3.511     5.127     6.245     6.685     6.824     6.803  -999.250  -999.250   -30.710  -137.648  -999.250  -999.250
 5398.500    13.523    87.203     3.275     4.605     5.532     5.904     6.024     6.007  -999.250  -999.250   -30.326  -124.340  -999.250  -999.250
 5399.000    12.317    97.277     3.596     4.803     5.627     5.980     6.096     6.081  -999.250  -999.250   -30.301  -115.237  -999.250  -999.250
 5399.500    10.690   104.597     4.360     5.512     6.272     6.635     6.759     6.746  -999.250  -999.250   -30.565  -117.268  -999.250  -999.250
