~Version Information
 VERS.                2.00:   CWLS log ASCII Standard -VERSION 2.00
 WRAP.                  NO:   One line per frame
~Well Information Block
#MNEM.UNIT                 Well Data                         Data Description
#---------  -----------------------------------------  -------------------------------
 STRT.FT                                      0.0000:  Starting Depth
 STOP.FT                                   9827.0000:  Ending Depth
 STEP.FT                                      0.5000:  Level Spacing
 NULL.                                     -999.2500:  Absent Value
 COMP.      ANADARKO PETROLEUM CORPORATION          :  Company
 WELL.      ECHO SPRINGS STATE 5-16                 :  Well
 FLD .      ECHO SPRINGS                            :  Field
 LOC .      2640' FNL & 2640' FEL                   :  Location
 CNTY.      CARBON                                  :  County
 STAT.      WYOMING                                 :  State
 SRVC.      Baker Atlas                             :  Service Company
 DATE.      25-Jul-2003                             :  Log Date
 API .      49-007-22364                            :  API Number
 UWI .      490072236400                            :  Unique Well ID
~Curve Information Block
#MNEM.UNIT           API Codes    Curve Description
#---------        -------------   -------------------------------
 DEPT    .FT      99 995 99  1:   Depth
 CAL     .IN      70 280 99  1:   Caliper
 GR      .GAPI    30 310  1  1:   Gamma Ray counts
 M2R1    .OHMM    99 995 99  1:   Vert resolution matched (2 ft) res - DOI 10 inch
 M2R2    .OHMM    99 995 99  1:   Vert resolution matched (2 ft) res - DOI 20 inch
 M2R3    .OHMM    99 995 99  1:   Vert resolution matched (2 ft) res - DOI 30 inch
 M2R6    .OHMM    99 995 99  1:   Vert resolution matched (2 ft) res - DOI 60 inch
 M2R9    .OHMM    99 995 99  1:   Vert resolution matched (2 ft) res - DOI 90 inch
 M2RX    .OHMM    99 995 99  1:   Vert resolution matched (2 ft) res - DOI 120 inch
 PE      .B/E     45 358  1  1:   Photo Electric Cross Section
 PORZ    .PU      45 890 99  1:   Porosity from ZDEN or ZDNC
 SP      .MV       1  10  1  1:   Spontaneous Potential
 TEN     .LBF     99 635 99  1:   Differential Tension
 ZDEN    .G/C3    45 350  1  1:   ZDL Bulk Density
 ZCOR    .G/C3    45 356 99  1:   ZDL Correction
~Parameter Information Block
#MNEM.UNIT             Parameter Value                     Parameter Description
#---------  -----------------------------------------  -------------------------------
 HIDE.      HIGH DEFINITION INDUCTION LOG           :  Header Identifer
 HID1.      Gamma Ray / Caliper                     :  Header Identifer
 CLAB.      COUNTY                                  :  County Label (Comments)
 SLAB.      STATE                                   :  State Label (Comments)
 FILE.      12521                                   :  File Number
 SECT.      16                                      :  Section
 TOWN.      19 N                                    :  Township
 RANG.      93 W                                    :  Range
 OS1 .      ZDL/CN                                  :  Other Services Line 1
 PDAT.      G.L.                                    :  Permanent Datum
 EPD .FT    6760                                    :  Elevation Of Perm. Datum
 LMF .      K.B.                                    :  Log Measured From
 APD .FT    18                                      :  Above Permanent Datum
 DMF .      K.B.                                    :  Drilling Measured From
 EKB .FT    6778                                    :  Elevation Of Kelly Bushing
 EDF .FT    6777                                    :  Elevation Of Derrick Floor
 EGL .FT    6760                                    :  Elevation Of Ground Level
 RUN .      1                                       :  Run Number
 TRIP.      1                                       :  Trip Number
 SON .      421546                                  :  Service Order Number
 TDD .FT    9820                                    :  Total Depth - Driller
 TDL .FT    9815                                    :  Total Depth - Logger
 BLI .FT    9815                                    :  Bottom Log Interval
 TLI .FT    0                                       :  Top Log Interval
 CSIZ.IN    9.625                                   :  Casing Size
 CBDR.FT    1501                                    :  N/A
 CBLO.FT    1515                                    :  N/A
 BS  .IN    7.875                                   :  Bit Size
 DFT .      GEL/CHEM                                :  Drilling Fluid Type
 DFD .LB/G  10.4                                    :  Drilling Fluid Density
 DFV .S     41                                      :  Drilling Fluid Viscosity
 DFPH.      9.0                                     :  Drilling Fluid Ph
 DFL .C3    10.0                                    :  Drilling Fluid Loss
 MSS .      TANK                                    :  Mud Sample Source
 RMS .OHMM  1.52                                    :  Resistivity Of Mud Sample
 MST .DEGF  87                                      :  Mud Sample Temperature
 RMFS.OHMM  1.14                                    :  Resistivity Of Mud Filtrate Sample
 MFST.DEGF  83                                      :  Mud Filtrate Sample Temperature
 RMCS.OHMM  1.82                                    :  Resistivity Of Mud Cake Sample
 MCST.DEGF  87                                      :  Mud Cake Sample Temperature
 MFSS.      MEAS.                                   :  Mud Filtrate Sample Source
 MCSS.      CALC.                                   :  Mud Cake Sample Source
 RMB .OHMM  .65                                     :  Mud Resistivity At Bht
 BHT .DEGF  203                                     :  Bottom Hole Temperature
 TSC .      7 HOURS                                 :  Time Since Circulation
 MRT .DEGF  203                                     :  Maximum Recorded Temperature
 LUN .      HL-6559                                 :  Logging Unit Number
 LUL .      RK. SPRINGS                             :  Logging Unit Location
 ENGI.      WARRINGTON                              :  Engineer's Name
 WITN.      ODUM / BERGMAN                          :  Witness' Name
 TSTR.      HDIL/                                   :  N/A
 TSTG.      NA                                      :  N/A
 STUS.      FINAL                                   :  N/A
 LCNM.      BAKER ATLAS                             :  N/A
 LCC .      150                                     :  Logging Company Code
 NATI.      CARBON                                  :  Nation
 OPMD.      OH.WIRE                                 :  N/A
 PANA.      WARRINGTON                              :  N/A
 PCON.      BAKER ATLAS                             :  N/A
~Other information
 CEMENT VOLUME BASED ON 4.5" CASING                                              
 CALIPER VERIFIED IN CASING                                                      
 THANKS FOR USING BAKER ATLAS                                                    
 CREW:  BRAMWELL / MYERS                                                         
 RIG:  CYCLONE #14                                                               
#  Curve Data
~A DEPT      CAL       GR        M2R1      M2R2      M2R3      M2R6      M2R9      M2RX      PE        PORZ      SP        TEN       ZDEN      ZCOR     
# ...
 1512.000     8.797    42.593     1.966     5.026  1677.046  1737.380  1799.611  1864.071  -999.250  -999.250  1136.630    -7.166  -999.250  -999.250
 1512.500     8.824    41.080     1.749     3.972  1565.880  1737.795  1802.382  1866.549  -999.250  -999.250   916.368   -12.564  -999.250  -999.250
 1513.000     8.859    40.768     1.711     3.694   677.111   843.065   979.654  1273.981  -999.250  -999.250   522.051   -13.456  -999.250  -999.250
 1513.500     8.913    44.393     2.059     4.579    32.043    24.930    22.805    31.865  -999.250  -999.250   195.048   -11.470  -999.250  -999.250
 1514.000     9.006    50.509     3.223     8.149    24.341    17.649    15.330    18.013  -999.250  -999.250    81.169    -8.554  -999.250  -999.250
 1514.500     9.125    53.946     5.975    19.330    33.569    23.248    19.655    22.147  -999.250  -999.250    72.852    -7.871  -999.250  -999.250
 1515.000     9.238    54.144    12.081    68.007    75.598    36.857    27.154    32.004  -999.250  -999.250    69.106    -9.702  -999.250  -999.250
 1515.500     9.325    54.259    24.540   612.218   136.714    46.991    33.142    39.016  -999.250  -999.250    64.879   -10.573  -999.250  -999.250
 1516.000     9.387    53.880    35.690  1486.795   104.312    40.696    24.115    31.278  -999.250  -999.250    61.015   -10.631  -999.250  -999.250
 1516.500     9.425    53.071    29.662  1646.182    74.289    27.353    17.647    21.121  -999.250  -999.250    57.129   -12.894  -999.250  -999.250
 1517.000     9.442    53.894    24.916  1568.257    71.518    24.446    16.917    20.087  -999.250  -999.250    52.619   -14.991  -999.250  -999.250
 1517.500     9.446    55.004    24.132  1473.808    91.914    28.456    19.619    23.990  -999.250  -999.250    47.425   -12.870  -999.250  -999.250
 1518.000     9.449    55.633    25.449  1358.579   128.701    37.616    25.711    33.900  -999.250  -999.250    42.078    -9.367  -999.250  -999.250
 1518.500     9.451    57.143    27.641  1166.608   185.868    54.142    37.896    55.662  -999.250  -999.250    37.127    -9.271  -999.250  -999.250
 1519.000     9.449    58.638    29.682   286.026   180.867    74.912    57.284    90.477  -999.250  -999.250    32.662   -11.392  -999.250  -999.250
 1519.500     9.446    59.427    30.065   122.125   132.363    91.814    85.957   138.397  -999.250  -999.250    28.589   -11.424  -999.250  -999.250
 1520.000     9.448    60.109    29.127   105.427   114.909   106.256   123.807   200.213  -999.250  -999.250    25.054    -8.606  -999.250  -999.250
 1520.500     9.454    59.889    28.252    82.930   118.087   130.085   181.550   310.976  -999.250  -999.250    22.297    -6.559  -999.250  -999.250
 1521.000     9.460    58.612    27.448    69.268   123.318   154.099   255.947   452.738  -999.250  -999.250    20.172   -11.826  -999.250  -999.250
 1521.500     9.461    57.509    26.208    59.563   118.739   163.265   305.408   561.140  -999.250  -999.250    18.263   -16.891  -999.250  -999.250
 1522.000     9.458    56.293    24.946    52.769   101.006   153.464   294.244   530.692  -999.250  -999.250    16.369   -11.335  -999.250  -999.250
 1522.500     9.451    55.822    24.201    48.380    86.078   133.465   235.607   402.538  -999.250  -999.250    14.555    -3.997  -999.250  -999.250
 1523.000     9.443    56.487    23.917    45.754    76.185   113.475   174.035   274.990  -999.250  -999.250    12.963    -4.689  -999.250  -999.250
 1523.500     9.437    57.787    23.874    43.929    69.229    97.371   129.610   184.945  -999.250  -999.250    11.538    -8.974  -999.250  -999.250
 1524.000     9.436    59.218    24.121    43.021    65.035    86.404   102.926   133.110  -999.250  -999.250    10.097   -12.043  -999.250  -999.250
 1524.500     9.441    59.765    24.665    42.881    62.936    79.794    87.952   104.550  -999.250  -999.250     8.712   -12.689  -999.250  -999.250
 1525.000     9.447    58.934    25.276    43.161    62.151    76.031    79.866    89.101  -999.250  -999.250     7.481    -6.194  -999.250  -999.250
 1525.500     9.447    57.199    25.681    43.266    60.417    73.585    75.244    80.175  -999.250  -999.250     6.228     5.579  -999.250  -999.250
 1526.000     9.445    55.817    25.664    42.818    58.558    71.286    72.072    74.595  -999.250  -999.250     4.932    11.518  -999.250  -999.250
 1526.500     9.445    56.796    25.396    41.987    56.897    69.135    69.826    71.049  -999.250  -999.250     4.099     8.157  -999.250  -999.250
 1527.000     9.449    58.481    25.295    41.503    56.167    67.943    69.048    69.833  -999.250  -999.250     4.327     2.973  -999.250  -999.250
 1527.500     9.451    57.294    25.470    41.568    56.526    68.026    69.850    70.709  -999.250  -999.250     7.084     3.648  -999.250  -999.250
 1528.000     9.449    55.579    25.542    41.630    57.159    68.461    71.189    72.566  -999.250  -999.250    13.314    10.241  -999.250  -999.250
 1528.500     9.444    56.435    25.148    41.067    57.160    68.343    71.999    74.105  -999.250  -999.250    20.507    20.596  -999.250  -999.250
 1529.000     9.440    58.532    24.524    40.252    56.881    68.039    72.597    75.619  -999.250  -999.250    26.126    26.480  -999.250  -999.250
 1529.500     9.440    59.286    24.156    39.929    57.291    68.625    74.083    78.110  -999.250  -999.250    30.855    20.216  -999.250  -999.250
 1530.000     9.439    57.206    24.137    40.190    58.199    70.021    76.389    81.534  -999.250  -999.250    35.070     8.004  -999.250  -999.250
 1530.500     9.439    53.427    24.301    40.615    59.007    71.483    78.687    84.893  -999.250  -999.250    37.276     1.592  -999.250  -999.250
 1531.000     9.444    51.917    24.409    40.681    59.010    71.979    79.841    86.955  -999.250  -999.250    37.761     3.714  -999.250  -999.250
 1531.500     9.448    53.299    24.275    40.067    57.807    71.042    79.296    86.990  -999.250  -999.250    37.880     7.311  -999.250  -999.250
 1532.000     9.447    54.210    23.982    39.044    55.871    69.128    77.572    85.592  -999.250  -999.250    37.925     3.384  -999.250  -999.250
 1532.500     9.441    52.610    23.853    38.286    54.310    67.526    76.111    84.321  -999.250  -999.250    37.863    -7.577  -999.250  -999.250
 1533.000     9.435    50.561    24.064    38.134    53.658    66.863    75.656    84.075  -999.250  -999.250    37.760   -12.990  -999.250  -999.250
 1533.500     9.432    51.444    24.264    38.040    53.216    66.385    75.332    83.848  -999.250  -999.250    37.674    -6.892  -999.250  -999.250
 1534.000     9.437    53.785    23.971    37.318    52.055    65.015    73.918    82.322  -999.250  -999.250    37.566    -1.172  -999.250  -999.250
 1534.500     9.442    53.536    23.454    36.499    50.969    63.696    72.464    80.639  -999.250  -999.250    37.358    -3.476  -999.250  -999.250
 1535.000     9.442    51.468    23.272    36.481    51.170    63.820    72.580    80.644  -999.250  -999.250    37.037    -2.936  -999.250  -999.250
 1535.500     9.443    49.499    23.302    36.924    52.106    64.743    73.519    81.466  -999.250  -999.250    36.677     8.971  -999.250  -999.250
 1536.000     9.446    47.369    23.093    36.858    52.259    64.679    73.278    80.898  -999.250  -999.250    36.374    23.031  -999.250  -999.250
 1536.500     9.447    46.822    22.733    36.293    51.531    63.527    71.771    78.850  -999.250  -999.250    36.073    29.884  -999.250  -999.250
 1537.000     9.447    50.271    22.634    36.018    51.016    62.554    70.498    77.039  -999.250  -999.250    35.555    26.334  -999.250  -999.250
 1537.500     9.444    55.478    22.829    36.337    51.222    62.360    70.153    76.230  -999.250  -999.250    34.701    18.650  -999.250  -999.250
 1538.000     9.439    57.869    22.955    36.857    51.661    62.392    70.119    75.769  -999.250  -999.250    33.655    23.663  -999.250  -999.250
 1538.500     9.437    56.460    22.590    36.835    51.318    61.534    69.113    74.277  -999.250  -999.250    32.599    39.478  -999.250  -999.250
