~Version Information
 VERS.                2.00:   CWLS log ASCII Standard -VERSION 2.00
 WRAP.                  NO:   One line per frame
~Well Information Block
#MNEM.UNIT                 Well Data                         Data Description
#---------  -----------------------------------------  -------------------------------
 STRT.FT                                      0.0000:  Starting Depth
 STOP.FT                                   9827.0000:  Ending Depth
 STEP.FT                                      0.5000:  Level Spacing
 NULL.                                     -999.2500:  Absent Value
 COMP.      ANADARKO PETROLEUM CORPORATION          :  Company
 WELL.      ECHO SPRINGS STATE 5-16                 :  Well
 FLD .      ECHO SPRINGS                            :  Field
 LOC .      2640' FNL & 2640' FEL                   :  Location
 CNTY.      CARBON                                  :  County
 STAT.      WYOMING                                 :  State
 SRVC.      Baker Atlas                             :  Service Company
 DATE.      25-Jul-2003                             :  Log Date
 API .      49-007-22364                            :  API Number
 UWI .      490072236400                            :  Unique Well ID
~Curve Information Block
#MNEM.UNIT           API Codes    Curve Description
#---------        -------------   -------------------------------
 DEPT    .FT      99 995 99  1:   Depth
 CAL     .IN      70 280 99  1:   Caliper
 GR      .GAPI    30 310  1  1:   Gamma Ray counts
 M2R1    .OHMM    99 995 99  1:   Vert resolution matched (2 ft) res - DOI 10 inch
 M2R2    .OHMM    99 995 99  1:   Vert resolution matched (2 ft) res - DOI 20 inch
 M2R3    .OHMM    99 995 99  1:   Vert resolution matched (2 ft) res - DOI 30 inch
 M2R6    .OHMM    99 995 99  1:   Vert resolution matched (2 ft) res - DOI 60 inch
 M2R9    .OHMM    99 995 99  1:   Vert resolution matched (2 ft) res - DOI 90 inch
 M2RX    .OHMM    99 995 99  1:   Vert resolution matched (2 ft) res - DOI 120 inch
 PE      .B/E     45 358  1  1:   Photo Electric Cross Section
 PORZ    .PU      45 890 99  1:   Porosity from ZDEN or ZDNC
 SP      .MV       1  10  1  1:   Spontaneous Potential
 TEN     .LBF     99 635 99  1:   Differential Tension
 ZDEN    .G/C3    45 350  1  1:   ZDL Bulk Density
 ZCOR    .G/C3    45 356 99  1:   ZDL Correction
~Parameter Information Block
#MNEM.UNIT             Parameter Value                     Parameter Description
#---------  -----------------------------------------  -------------------------------
 HIDE.      HIGH DEFINITION INDUCTION LOG           :  Header Identifer
 HID1.      Gamma Ray / Caliper                     :  Header Identifer
 CLAB.      COUNTY                                  :  County Label (Comments)
 SLAB.      STATE                                   :  State Label (Comments)
 FILE.      12521                                   :  File Number
 SECT.      16                                      :  Section
 TOWN.      19 N                                    :  Township
 RANG.      93 W                                    :  Range
 OS1 .      ZDL/CN                                  :  Other Services Line 1
 PDAT.      G.L.                                    :  Permanent Datum
 EPD .FT    6760                                    :  Elevation Of Perm. Datum
 LMF .      K.B.                                    :  Log Measured From
 APD .FT    18                                      :  Above Permanent Datum
 DMF .      K.B.                                    :  Drilling Measured From
 EKB .FT    6778                                    :  Elevation Of Kelly Bushing
 EDF .FT    6777                                    :  Elevation Of Derrick Floor
 EGL .FT    6760                                    :  Elevation Of Ground Level
 RUN .      1                                       :  Run Number
 TRIP.      1                                       :  Trip Number
 SON .      421546                                  :  Service Order Number
 TDD .FT    9820                                    :  Total Depth - Driller
 TDL .FT    9815                                    :  Total Depth - Logger
 BLI .FT    9815                                    :  Bottom Log Interval
 TLI .FT    0                                       :  Top Log Interval
 CSIZ.IN    9.625                                   :  Casing Size
 CBDR.FT    1501                                    :  N/A
 CBLO.FT    1515                                    :  N/A
 BS  .IN    7.875                                   :  Bit Size
 DFT .      GEL/CHEM                                :  Drilling Fluid Type
 DFD .LB/G  10.4                                    :  Drilling Fluid Density
 DFV .S     41                                      :  Drilling Fluid Viscosity
 DFPH.      9.0                                     :  Drilling Fluid Ph
 DFL .C3    10.0                                    :  Drilling Fluid Loss
 MSS .      TANK                                    :  Mud Sample Source
 RMS .OHMM  1.52                                    :  Resistivity Of Mud Sample
 MST .DEGF  87                                      :  Mud Sample Temperature
 RMFS.OHMM  1.14                                    :  Resistivity Of Mud Filtrate Sample
 MFST.DEGF  83                                      :  Mud Filtrate Sample Temperature
 RMCS.OHMM  1.82                                    :  Resistivity Of Mud Cake Sample
 MCST.DEGF  87                                      :  Mud Cake Sample Temperature
 MFSS.      MEAS.                                   :  Mud Filtrate Sample Source
 MCSS.      CALC.                                   :  Mud Cake Sample Source
 RMB .OHMM  .65                                     :  Mud Resistivity At Bht
 BHT .DEGF  203                                     :  Bottom Hole Temperature
 TSC .      7 HOURS                                 :  Time Since Circulation
 MRT .DEGF  203                                     :  Maximum Recorded Temperature
 LUN .      HL-6559                                 :  Logging Unit Number
 LUL .      RK. SPRINGS                             :  Logging Unit Location
 ENGI.      WARRINGTON                              :  Engineer's Name
 WITN.      ODUM / BERGMAN                          :  Witness' Name
 TSTR.      HDIL/                                   :  N/A
 TSTG.      NA                                      :  N/A
 STUS.      FINAL                                   :  N/A
 LCNM.      BAKER ATLAS                             :  N/A
 LCC .      150                                     :  Logging Company Code
 NATI.      CARBON                                  :  Nation
 OPMD.      OH.WIRE                                 :  N/A
 PANA.      WARRINGTON                              :  N/A
 PCON.      BAKER ATLAS                             :  N/A
~Other information
 CEMENT VOLUME BASED ON 4.5" CASING                                              
 CALIPER VERIFIED IN CASING                                                      
 THANKS FOR USING BAKER ATLAS                                                    
 CREW:  BRAMWELL / MYERS                                                         
 RIG:  CYCLONE #14                                                               
#  Curve Data
~A DEPT      CAL       GR        M2R1      M2R2      M2R3      M2R6      M2R9      M2RX      PE        PORZ      SP        TEN       ZDEN      ZCOR     
# ...
 2619.000     8.661    59.339    16.327    23.374    31.218    40.992    48.184    56.046  -999.250  -999.250    32.027   -63.216  -999.250  -999.250
 2619.500     8.662    59.096    16.278    23.201    30.909    40.674    47.855    55.860  -999.250  -999.250    31.989   -30.428  -999.250  -999.250
 2620.000     8.664    59.085    16.246    23.033    30.629    40.393    47.564    55.703  -999.250  -999.250    31.764   -12.588  -999.250  -999.250
 2620.500     8.663    60.082    16.354    23.067    30.637    40.483    47.711    56.037  -999.250  -999.250    31.395   -14.534  -999.250  -999.250
 2621.000     8.658    60.779    16.653    23.370    31.011    41.048    48.426    57.011  -999.250  -999.250    30.990   -26.252  -999.250  -999.250
 2621.500     8.654    61.040    16.998    23.712    31.444    41.692    49.246    58.077  -999.250  -999.250    30.674   -39.763  -999.250  -999.250
 2622.000     8.652    60.778    17.196    23.828    31.579    41.950    49.618    58.571  -999.250  -999.250    30.430   -49.479  -999.250  -999.250
 2622.500     8.651    59.554    17.245    23.784    31.508    41.922    49.650    58.619  -999.250  -999.250    30.134   -54.185  -999.250  -999.250
 2623.000     8.651    60.576    17.288    23.828    31.552    42.006    49.795    58.749  -999.250  -999.250    29.698   -55.047  -999.250  -999.250
 2623.500     8.657    64.098    17.275    23.876    31.589    42.020    49.815    58.682  -999.250  -999.250    29.165   -53.748  -999.250  -999.250
 2624.000     8.659    65.083    17.063    23.656    31.243    41.461    49.090    57.683  -999.250  -999.250    28.645   -51.761  -999.250  -999.250
 2624.500     8.654    62.569    16.772    23.298    30.680    40.537    47.853    56.038  -999.250  -999.250    28.195   -51.275  -999.250  -999.250
 2625.000     8.653    60.394    16.621    23.106    30.299    39.755    46.701    54.453  -999.250  -999.250    27.696   -51.594  -999.250  -999.250
 2625.500     8.661    60.235    16.666    23.169    30.209    39.259    45.808    53.139  -999.250  -999.250    27.002   -53.978  -999.250  -999.250
 2626.000     8.671    62.578    16.937    23.523    30.455    39.100    45.241    52.177  -999.250  -999.250    26.141   -58.672  -999.250  -999.250
 2626.500     8.673    65.986    17.568    24.363    31.277    39.574    45.357    51.980  -999.250  -999.250    25.220   -62.565  -999.250  -999.250
 2627.000     8.673    67.088    18.698    25.882    32.907    40.939    46.454    52.884  -999.250  -999.250    24.287   -65.097  -999.250  -999.250
 2627.500     8.675    66.171    20.251    27.944    35.138    42.911    48.209    54.507  -999.250  -999.250    23.278   -65.978  -999.250  -999.250
 2628.000     8.678    69.355    21.581    29.541    36.663    43.952    48.909    54.916  -999.250  -999.250    22.063   -65.563  -999.250  -999.250
 2628.500     8.677    80.029    21.535    29.036    35.497    41.873    46.183    51.496  -999.250  -999.250    20.815   -63.454  -999.250  -999.250
 2629.000     8.674    95.197    20.143    26.567    31.931    37.150    40.645    45.014  -999.250  -999.250    20.072   -59.958  -999.250  -999.250
 2629.500     8.675   107.429    18.796    24.139    28.476    32.693    35.521    39.098  -999.250  -999.250    20.043   -55.662  -999.250  -999.250
 2630.000     8.681   113.638    18.137    22.640    26.200    29.697    32.077    35.120  -999.250  -999.250    20.374   -53.792  -999.250  -999.250
 2630.500     8.686   115.964    17.908    21.717    24.671    27.645    29.718    32.392  -999.250  -999.250    20.660   -56.031  -999.250  -999.250
 2631.000     8.687   116.575    17.747    20.944    23.403    25.990    27.832    30.228  -999.250  -999.250    20.763   -60.571  -999.250  -999.250
 2631.500     8.682   113.127    17.781    20.532    22.649    24.992    26.686    28.907  -999.250  -999.250    20.648   -62.133  -999.250  -999.250
 2632.000     8.675   107.165    18.577    21.189    23.181    25.469    27.140    29.346  -999.250  -999.250    20.246   -58.781  -999.250  -999.250
 2632.500     8.671   103.180    20.228    23.089    25.192    27.610    29.383    31.741  -999.250  -999.250    19.471   -55.291  -999.250  -999.250
 2633.000     8.664   101.861    21.894    25.346    27.748    30.400    32.333    34.922  -999.250  -999.250    18.384   -54.705  -999.250  -999.250
 2633.500     8.658    98.943    22.737    26.960    29.772    32.668    34.740    37.534  -999.250  -999.250    17.122   -54.924  -999.250  -999.250
 2634.000     8.655    93.178    22.910    27.965    31.281    34.424    36.612    39.589  -999.250  -999.250    15.763   -55.134  -999.250  -999.250
 2634.500     8.655    86.984    23.006    28.935    32.861    36.279    38.602    41.792  -999.250  -999.250    14.518   -55.201  -999.250  -999.250
 2635.000     8.656    83.277    23.271    30.068    34.671    38.391    40.873    44.320  -999.250  -999.250    13.778   -53.203  -999.250  -999.250
 2635.500     8.659    82.760    23.623    31.147    36.411    40.425    43.072    46.785  -999.250  -999.250    13.670   -49.025  -999.250  -999.250
 2636.000     8.663    83.979    23.921    31.967    37.805    42.084    44.882    48.840  -999.250  -999.250    13.674   -47.832  -999.250  -999.250
 2636.500     8.668    84.967    24.170    32.648    38.990    43.520    46.467    50.659  -999.250  -999.250    12.680   -50.898  -999.250  -999.250
 2637.000     8.672    83.766    24.464    33.419    40.254    45.042    48.164    52.605  -999.250  -999.250    11.578   -52.739  -999.250  -999.250
 2637.500     8.673    80.211    24.886    34.353    41.688    46.743    50.075    54.787  -999.250  -999.250    12.610   -54.816  -999.250  -999.250
 2638.000     8.672    75.703    25.556    35.483    43.304    48.620    52.197    57.204  -999.250  -999.250    15.357   -65.139  -999.250  -999.250
 2638.500     8.675    71.366    26.205    36.342    44.483    49.986    53.783    59.028  -999.250  -999.250    16.638   -77.511  -999.250  -999.250
 2639.000     8.680    68.056    26.116    35.954    43.994    49.509    53.386    58.656  -999.250  -999.250    15.686   -75.277  -999.250  -999.250
 2639.500     8.680    71.334    25.267    34.389    41.940    47.288    51.093    56.181  -999.250  -999.250    15.100   -59.594  -999.250  -999.250
 2640.000     8.676    83.124    24.489    32.916    39.919    45.048    48.764    53.649  -999.250  -999.250    16.019   -50.911  -999.250  -999.250
 2640.500     8.676    94.047    24.354    32.382    39.016    44.004    47.721    52.526  -999.250  -999.250    17.285   -52.880  -999.250  -999.250
 2641.000     8.681    97.796    24.588    32.399    38.802    43.724    47.499    52.296  -999.250  -999.250    18.061   -53.883  -999.250  -999.250
 2641.500     8.682    98.505    24.376    31.856    37.994    42.842    46.610    51.316  -999.250  -999.250    18.858   -51.078  -999.250  -999.250
 2642.000     8.677   100.405    23.353    30.322    36.124    40.854    44.502    48.977  -999.250  -999.250    19.870   -46.869  -999.250  -999.250
 2642.500     8.673   102.332    22.039    28.594    34.147    38.791    42.300    46.524  -999.250  -999.250    21.326   -41.026  -999.250  -999.250
 2643.000     8.670   102.154    21.205    27.740    33.314    38.021    41.501    45.612  -999.250  -999.250    23.070   -36.930  -999.250  -999.250
 2643.500     8.670    96.277    20.976    27.885    33.750    38.684    42.266    46.419  -999.250  -999.250    24.454   -38.598  -999.250  -999.250
 2644.000     8.671    85.385    20.892    28.308    34.561    39.781    43.502    47.741  -999.250  -999.250    25.272   -45.444  -999.250  -999.250
 2644.500     8.676    75.620    20.699    28.509    35.094    40.566    44.391    48.684  -999.250  -999.250    25.803   -53.688  -999.250  -999.250
 2645.000     8.691    71.010    20.501    28.548    35.387    41.057    44.952    49.270  -999.250  -999.250    26.067   -57.727  -999.250  -999.250
 2645.500     8.721    70.450    20.324    28.460    35.450    41.253    45.176    49.495  -999.250  -999.250    25.863   -56.553  -999.250  -999.250
